"borough","ClosureType","EditDate","GISpropNum","OMPpropID","Red.Sign.Installed","Status","accessibility","accessibilityLevel","location","name","longitude","latitude","rules","system","Approx.Date.Closed","Approx.Date.Reopened","Community.board","District","button","content"
"Bronx","Completely Locked","07/06/2020 12:44:05 PM","X186","X186","","Reopened","","","Hudson Manor Ter bet. W 237 St and W 236 St","Riverdale Playground",-73.9147782950652,40.8876081686989,"","","03/31/2020 07:11:11 PM","07/06/2020 12:00:00 AM",208,"X-08","Playgrounds","Hudson Manor Ter bet. W 237 St and W 236 St, Bronx, NY<br/><b>Status: </b>Reopened<br/><b>Accessibility: </b>"
"Bronx","Completely Locked","06/22/2020 10:33:06 AM","X197","X197","","Reopened","false","Not Applicable","Mosholu Parkway South bet. Bainbridge Ave. and Briggs Ave.","Mosholu Playground",-73.882859966264,40.8721592631146,"Adults Allowed","X197-CPA-0002","03/31/2020 07:11:11 PM","06/21/2020 12:00:00 AM",207,"X-07","Playgrounds","Mosholu Parkway South bet. Bainbridge Ave. and Briggs Ave., Bronx, NY<br/><b>Status: </b>Reopened<br/><b>Accessibility: </b>Not Applicable"
"Manhattan","Completely Locked","06/23/2020 09:14:23 AM","M283","M283-01","","Reopened","","","","Nelson Rockefeller Park Playground North",-74.0155558956247,40.7180874551248,"","","03/31/2020 07:11:11 PM","06/22/2020 12:00:00 AM",101,"M-01","Playgrounds",", Manhattan, NY<br/><b>Status: </b>Reopened<br/><b>Accessibility: </b>"
"Bronx","Completely Locked","06/22/2020 11:09:38 AM","X121","X121","","Reopened","false","Not Applicable","Bradford Ave. bet. La Salle Ave. and Waterbury Ave.","Bufano Park",-73.8309119667303,40.8378545580122,"Adults Allowed","X121-CPA-0001","03/31/2020 07:11:11 PM","06/21/2020 12:00:00 AM",210,"X-10","Playgrounds","Bradford Ave. bet. La Salle Ave. and Waterbury Ave., Bronx, NY<br/><b>Status: </b>Reopened<br/><b>Accessibility: </b>Not Applicable"
"Brooklyn","Completely Locked","06/23/2020 10:08:49 AM","B287","B287","","Reopened","","","","Andries Playground",-73.9464552609493,40.62283326105,"","","03/31/2020 07:11:11 PM","06/22/2020 12:00:00 AM",314,"B-14","Playgrounds",", Brooklyn, NY<br/><b>Status: </b>Reopened<br/><b>Accessibility: </b>"
"Brooklyn","Completely Locked","06/22/2020 04:19:50 PM","B118B","B118B","true","Reopened","","","","St. Mary's Park",-73.9972220658303,40.6764307214546,"","","03/31/2020 07:11:11 PM","06/22/2020 12:00:00 AM",306,"B-06","Playgrounds",", Brooklyn, NY<br/><b>Status: </b>Reopened<br/><b>Accessibility: </b>"
"Queens","Completely Locked","06/21/2020 06:41:49 PM","Q305","Q305","","Reopened","false","Not Applicable","65 Pl. bet. Shaler Ave. and the rail yards","Mafera Park",-73.891179895965,40.7057533592646,"Adults Allowed","Q305-CPA-0001","03/31/2020 07:11:11 PM","06/21/2020 09:00:00 AM",405,"Q-05","Playgrounds","65 Pl. bet. Shaler Ave. and the rail yards, Queens, NY<br/><b>Status: </b>Reopened<br/><b>Accessibility: </b>Not Applicable"
"Manhattan","Completely Locked","06/22/2020 03:31:59 PM","M071","M071-37","","Reopened","true","Level 3: Accessible Playgrounds with Universally Accessible Swings","W 112-113 Sts, Riverside Dr","Tot Lot One Hundred And Twelve",-73.9679302018404,40.8064616030763,"Unknown","M071-CPA-0001","03/31/2020 07:11:11 PM","06/21/2020 12:00:00 AM",109,"M-14","Playgrounds","W 112-113 Sts, Riverside Dr, Manhattan, NY<br/><b>Status: </b>Reopened<br/><b>Accessibility: </b>Level 3: Accessible Playgrounds with Universally Accessible Swings"
"Brooklyn","Completely Locked","06/22/2020 03:35:50 PM","B267","B267","","Reopened","false","Not Applicable","Winthrop St. between Rogers Ave. and Bedford Ave.","Winthrop Playground",-73.954789948915,40.6565652459303,"Adults Allowed","B267-CPA-0001","03/31/2020 07:11:11 PM","06/22/2020 12:00:00 AM",309,"B-09","Playgrounds","Winthrop St. between Rogers Ave. and Bedford Ave., Brooklyn, NY<br/><b>Status: </b>Reopened<br/><b>Accessibility: </b>Not Applicable"
"Bronx","Completely Locked","06/22/2020 01:12:24 PM","X185","X185","","Reopened","","","E 161 St, Trinity Av, E 163 St, Cauldwel","Dunbar Playground",-73.906443750881,40.8230107773918,"","","03/31/2020 07:11:11 PM","06/21/2020 12:00:00 AM",203,"X-03","Playgrounds","E 161 St, Trinity Av, E 163 St, Cauldwel, Bronx, NY<br/><b>Status: </b>Reopened<br/><b>Accessibility: </b>"
"Brooklyn","Completely Locked","06/22/2020 01:55:05 PM","B129","B129-01","","Reopened","","","","Leon S Kaiser Playground",-73.995352832906,40.5781964380472,"","","03/31/2020 07:11:11 PM","06/22/2020 12:00:00 AM",313,"B-13","Playgrounds",", Brooklyn, NY<br/><b>Status: </b>Reopened<br/><b>Accessibility: </b>"
"Bronx","Completely Locked","06/22/2020 10:00:32 AM","X290","X290","","Reopened","","","Longfellow Ave., Lowell St., E. 165 St.","Longfellow Playground",-73.8875568672046,40.8255950674082,"","","03/31/2020 07:11:11 PM","06/21/2020 12:00:00 AM",202,"X-02","Playgrounds","Longfellow Ave., Lowell St., E. 165 St., Bronx, NY<br/><b>Status: </b>Reopened<br/><b>Accessibility: </b>"
"Manhattan","Completely Locked","06/22/2020 03:57:42 PM","M088","M088-03","","Reopened","true","Level 4: Accessible Playgrounds with Transfer Platforms and Ground Level Play Features","E 7 St - 8 St & Ave B","Tompkins Square Park",-73.9815411982918,40.7256218379464,"Unknown","M088-CPA-0002","03/31/2020 07:11:11 PM","06/21/2020 12:00:00 AM",103,"M-03","Playgrounds","E 7 St - 8 St & Ave B, Manhattan, NY<br/><b>Status: </b>Reopened<br/><b>Accessibility: </b>Level 4: Accessible Playgrounds with Transfer Platforms and Ground Level Play Features"
"Bronx","Partially Locked","06/22/2020 09:54:46 AM","X194","X194","","Reopened","true","Level 4: Accessible Playgrounds with Transfer Platforms and Ground Level Play Features","E 156 St bet. Jackson Av and Forest Av","Captain Rivera Playground",-73.9070187283234,40.8181366711574,"Adults Allowed","X194-CPA-0001","03/31/2020 07:11:11 PM","06/21/2020 12:00:00 AM",201,"X-01","Playgrounds","E 156 St bet. Jackson Av and Forest Av, Bronx, NY<br/><b>Status: </b>Reopened<br/><b>Accessibility: </b>Level 4: Accessible Playgrounds with Transfer Platforms and Ground Level Play Features"
"Brooklyn","Completely Locked","06/22/2020 11:35:22 AM","B283","B283","","Reopened","true","Level 4: Accessible Playgrounds with Transfer Platforms and Ground Level Play Features","Belmont Ave. between Forbell St. and Drew St.","Belmont Playground",-73.8629233583666,40.6754532062296,"Adults Allowed","B283-CPA-0001","03/31/2020 07:11:11 PM","06/20/2020 12:00:00 AM",305,"B-05","Playgrounds","Belmont Ave. between Forbell St. and Drew St., Brooklyn, NY<br/><b>Status: </b>Reopened<br/><b>Accessibility: </b>Level 4: Accessible Playgrounds with Transfer Platforms and Ground Level Play Features"
"Queens","Completely Locked","06/21/2020 11:14:48 AM","Q020","Q020-01","","Reopened","false","Not Applicable","Jamaica Ave & Elton St","Lower Highland Playground",-73.8855915510305,40.6840669197354,"Unknown","Q020-CPA-0001","03/31/2020 07:11:11 PM","06/21/2020 11:14:45 AM",305,"Q-05A","Playgrounds","Jamaica Ave & Elton St, Queens, NY<br/><b>Status: </b>Reopened<br/><b>Accessibility: </b>Not Applicable"
"Brooklyn","Completely Locked","06/22/2020 03:35:31 PM","B012","B012-02","","Reopened","true","Level 2: Accessible Playgrounds with Ramped Play Equipment and Universally Accessible Swings","Brooklyn Ave & Prospect Pl","Brower Park",-73.9435531812071,40.6735066677001,"Adults not allowed in some locations","B012-CPA-0001","03/31/2020 07:11:11 PM","06/22/2020 12:00:00 AM",308,"B-08","Playgrounds","Brooklyn Ave & Prospect Pl, Brooklyn, NY<br/><b>Status: </b>Reopened<br/><b>Accessibility: </b>Level 2: Accessible Playgrounds with Ramped Play Equipment and Universally Accessible Swings"
"Queens","Completely Locked","06/22/2020 01:08:28 PM","Q354","Q354","","Reopened","true","Level 4: Accessible Playgrounds with Transfer Platforms and Ground Level Play Features","160 St. bet. 75 Ave. and 75 Rd.","Playground Seventy Five",-73.808360684891,40.7264189880026,"Adults Allowed","Q354-CPA-0001","03/31/2020 07:11:11 PM","06/21/2020 12:00:00 AM",408,"Q-08","Playgrounds","160 St. bet. 75 Ave. and 75 Rd., Queens, NY<br/><b>Status: </b>Reopened<br/><b>Accessibility: </b>Level 4: Accessible Playgrounds with Transfer Platforms and Ground Level Play Features"
"Brooklyn","Completely Locked","06/23/2020 10:01:04 AM","B348","B348","","Reopened","true","Level 4: Accessible Playgrounds with Transfer Platforms and Ground Level Play Features","Tompkins Ave., Willoughby Ave., Vernon Ave.","Willoughby Playground",-73.946458553835,40.6944428265274,"Adults Allowed","B348-CPA-0001","03/31/2020 07:11:11 PM","06/22/2020 12:00:00 AM",303,"B-03","Playgrounds","Tompkins Ave., Willoughby Ave., Vernon Ave., Brooklyn, NY<br/><b>Status: </b>Reopened<br/><b>Accessibility: </b>Level 4: Accessible Playgrounds with Transfer Platforms and Ground Level Play Features"
"Queens","Not Lockable","06/21/2020 02:55:40 PM","Q092","Q092","","Reopened","true","Level 4: Accessible Playgrounds with Transfer Platforms and Ground Level Play Features","N. Conduit Ave., 135 Ave. bet. 130 Pl. and 134 St.","Police Officer Edward Byrne Park",-73.8068925391305,40.6674534874778,"Adults Allowed","Q092-CPA-0001","03/31/2020 07:11:11 PM","06/21/2020 02:55:37 PM",410,"Q-10","Playgrounds","N. Conduit Ave., 135 Ave. bet. 130 Pl. and 134 St., Queens, NY<br/><b>Status: </b>Reopened<br/><b>Accessibility: </b>Level 4: Accessible Playgrounds with Transfer Platforms and Ground Level Play Features"
"Manhattan","Partially Locked","06/22/2020 04:25:26 PM","M208D","M208D","true","Reopened","","","","Each One Teach One",-73.9345683794346,40.807157334283,"","","03/31/2020 07:11:11 PM","06/21/2020 12:00:00 AM",111,"M-11","Playgrounds",", Manhattan, NY<br/><b>Status: </b>Reopened<br/><b>Accessibility: </b>"
"Brooklyn","Completely Locked","06/22/2020 01:39:23 PM","B236","B236","","Reopened","true","Level 4: Accessible Playgrounds with Transfer Platforms and Ground Level Play Features","Ralph Ave. and Farragut Rd.","Glenwood Playground",-73.9201988650394,40.6365107098811,"Adults Allowed","B236-CPA-0001","03/31/2020 07:11:11 PM","06/22/2020 12:00:00 AM",318,"B-18","Playgrounds","Ralph Ave. and Farragut Rd., Brooklyn, NY<br/><b>Status: </b>Reopened<br/><b>Accessibility: </b>Level 4: Accessible Playgrounds with Transfer Platforms and Ground Level Play Features"
"Bronx","Not Lockable","07/06/2020 12:48:59 PM","X148A3","X148A3","","Reopened","","","","Bridge Playground",-73.9241211845785,40.8443125809914,"","","03/31/2020 07:11:11 PM","07/06/2020 12:00:00 AM",204,"X-04","Playgrounds",", Bronx, NY<br/><b>Status: </b>Reopened<br/><b>Accessibility: </b>"
"Queens","Partially Locked","06/19/2020 01:56:40 PM","Q391","Q391","","Reopened","false","Not Applicable","164 Pl. bet. Grand Central Pkwy. Sr. Rd. S. and 84 Ave.","Joseph Austin Playground",-73.8013859821938,40.7155140341004,"Adults Allowed","Q391-CPA-0001","03/31/2020 07:11:11 PM","06/19/2020 01:56:37 PM",408,"Q-08","Playgrounds","164 Pl. bet. Grand Central Pkwy. Sr. Rd. S. and 84 Ave., Queens, NY<br/><b>Status: </b>Reopened<br/><b>Accessibility: </b>Not Applicable"
"Queens","Partially Locked","06/21/2020 11:14:48 AM","Q020","Q020-02","","Reopened","false","Not Applicable","Heath Pl & Highland Blvd","Upper Highland Playground",-73.8927063694293,40.6828427819236,"Unknown","Q020-CPA-0002","03/31/2020 07:11:11 PM","06/21/2020 11:14:45 AM",305,"Q-05A","Playgrounds","Heath Pl & Highland Blvd, Queens, NY<br/><b>Status: </b>Reopened<br/><b>Accessibility: </b>Not Applicable"
"Staten Island","Completely Locked","06/23/2020 01:21:02 PM","R067","R067","","Reopened","false","Not Applicable","Dongan Hills Ave. and Jefferson St.","Gen. Douglas MacArthur Park",-74.1011592636215,40.5856705812178,"Adults Allowed","R067-CPA-0001","03/31/2020 07:11:11 PM","06/23/2020 12:00:00 AM",502,"R-02","Playgrounds","Dongan Hills Ave. and Jefferson St., Staten Island, NY<br/><b>Status: </b>Reopened<br/><b>Accessibility: </b>Not Applicable"
"Queens","Completely Locked","06/25/2020 11:28:00 AM","Q516","Q516","","UnderConstruction","","","","Lt. Michael R. Davidson Playground",-73.9135101287059,40.7486571697983,"","","03/31/2020 07:11:11 PM","06/25/2020 11:27:58 AM",402,"Q-02","Playgrounds",", Queens, NY<br/><b>Status: </b>UnderConstruction<br/><b>Accessibility: </b>"
"Queens","Partially Locked","06/19/2020 10:47:45 AM","Q015","Q015-02","","Reopened","true","Level 3: Accessible Playgrounds with Universally Accessible Swings","Union Tpke, Park Lane S, Adj Overlook","Sobelsohn Park",-73.8359779942057,40.7095355541116,"Unknown","Q015-CPA-0001","03/31/2020 07:11:11 PM","06/19/2020 10:47:42 AM",482,"Q-16","Playgrounds","Union Tpke, Park Lane S, Adj Overlook, Queens, NY<br/><b>Status: </b>Reopened<br/><b>Accessibility: </b>Level 3: Accessible Playgrounds with Universally Accessible Swings"
"Brooklyn","Completely Locked","06/22/2020 04:19:50 PM","B223A","B223A","","Reopened","","","Rapelye St., Hicks St., Coles St.","Dimattina Playground",-74.0027443047247,40.6799690686915,"","","03/31/2020 07:11:11 PM","06/22/2020 12:00:00 AM",306,"B-06","Playgrounds","Rapelye St., Hicks St., Coles St., Brooklyn, NY<br/><b>Status: </b>Reopened<br/><b>Accessibility: </b>"
"Queens","Completely Locked","06/21/2020 06:41:49 PM","Q102","Q102-02","","Reopened","false","Not Applicable","80th St, Juniper Blvd S, 77th Place, Juniper Blvd S, 78th St","Juniper North Playground Tennis",-73.8776977506441,40.7201867524036,"Unknown","Q102-CPA-0001","03/31/2020 07:11:11 PM","06/21/2020 09:00:00 AM",405,"Q-05","Playgrounds","80th St, Juniper Blvd S, 77th Place, Juniper Blvd S, 78th St, Queens, NY<br/><b>Status: </b>Reopened<br/><b>Accessibility: </b>Not Applicable"
"Staten Island","Not Lockable","06/22/2020 04:56:40 PM","R109","R109-01","","Reopened","false","Not Applicable","Broadway, Wayne St","Corporal Thompson Playground",-74.1180529211784,40.6389410494042,"Adults not allowed in some locations","R109-CPA-0001","03/31/2020 07:11:11 PM","06/22/2020 12:00:00 AM",501,"R-01","Playgrounds","Broadway, Wayne St, Staten Island, NY<br/><b>Status: </b>Reopened<br/><b>Accessibility: </b>Not Applicable"
"Brooklyn","Partially Locked","06/22/2020 03:29:41 PM","B128","B128","","Reopened","false","Not Applicable","Ave. P bet. E. 4 St. and Ocean Pkwy.","Colonel David Marcus Playground",-73.9687817102833,40.6102629888919,"Adults Allowed","B128-CPA-0001","03/31/2020 07:11:11 PM","06/22/2020 12:00:00 AM",312,"B-12","Playgrounds","Ave. P bet. E. 4 St. and Ocean Pkwy., Brooklyn, NY<br/><b>Status: </b>Reopened<br/><b>Accessibility: </b>Not Applicable"
"Brooklyn","Partially Locked","06/22/2020 01:13:48 PM","B218","B218","","Reopened","","","","Paerdegat Park",-73.9383470442252,40.6383576102499,"","","03/31/2020 07:11:11 PM","06/22/2020 12:00:00 AM",317,"B-17","Playgrounds",", Brooklyn, NY<br/><b>Status: </b>Reopened<br/><b>Accessibility: </b>"
"Brooklyn","Completely Locked","06/22/2020 01:43:27 PM","B324","B324","","Reopened","false","Not Applicable","Ave. K between E. 58 St. and E. 59 St.","Jacob Joffe Fields",-73.9193259732389,40.6245726955343,"Adults not allowed in some locations","B324-CPA-0001","03/31/2020 07:11:11 PM","06/22/2020 12:00:00 AM",318,"B-18","Playgrounds","Ave. K between E. 58 St. and E. 59 St., Brooklyn, NY<br/><b>Status: </b>Reopened<br/><b>Accessibility: </b>Not Applicable"
"Manhattan","Completely Locked","06/22/2020 11:04:53 AM","M264","M264","","Reopened","true","Level 2: Accessible Playgrounds with Ramped Play Equipment and Universally Accessible Swings","W. 89 St., Amsterdam Ave. and Columbus Ave.","Playground Eighty Nine LXXXIX",-73.9717727029232,40.788560957606,"Adults not allowed in some locations","M264-CPA-0001","03/31/2020 07:11:11 PM","06/21/2020 12:00:00 AM",107,"M-07","Playgrounds","W. 89 St., Amsterdam Ave. and Columbus Ave., Manhattan, NY<br/><b>Status: </b>Reopened<br/><b>Accessibility: </b>Level 2: Accessible Playgrounds with Ramped Play Equipment and Universally Accessible Swings"
"Bronx","Completely Locked","06/22/2020 11:05:07 AM","X170","X170","","Reopened","true","Level 3: Accessible Playgrounds with Universally Accessible Swings","St. Peter's Ave. at Tratman Ave.","The Pearly Gates",-73.8455607704643,40.838596449157,"Adults Allowed","X170-CPA-0001","03/31/2020 07:11:11 PM","06/21/2020 12:00:00 AM",210,"X-10","Playgrounds","St. Peter's Ave. at Tratman Ave., Bronx, NY<br/><b>Status: </b>Reopened<br/><b>Accessibility: </b>Level 3: Accessible Playgrounds with Universally Accessible Swings"
"Queens","Not Lockable","06/23/2020 12:26:47 PM","Q086","Q086-01","","Reopened","true","Level 4: Accessible Playgrounds with Transfer Platforms and Ground Level Play Features","149 St & 25 Ave","Leonardo Ingravallo Playground",-73.8173841290034,40.7761287084596,"Adults Allowed","Q086-CPA-0001","03/31/2020 07:11:11 PM","06/23/2020 12:26:44 PM",407,"Q-07","Playgrounds","149 St & 25 Ave, Queens, NY<br/><b>Status: </b>Reopened<br/><b>Accessibility: </b>Level 4: Accessible Playgrounds with Transfer Platforms and Ground Level Play Features"
"Queens","Completely Locked","06/21/2020 04:56:36 PM","Q367","Q367","","Reopened","true","Level 4: Accessible Playgrounds with Transfer Platforms and Ground Level Play Features","Rockaway Beach Blvd. bet. Beach 84 St. and Beach 81 St.","Hammel Playground",-73.809673234788,40.5882156210259,"Adults Allowed","Q367-CPA-0001","03/31/2020 07:11:11 PM","06/21/2020 04:56:33 PM",414,"Q-14","Playgrounds","Rockaway Beach Blvd. bet. Beach 84 St. and Beach 81 St., Queens, NY<br/><b>Status: </b>Reopened<br/><b>Accessibility: </b>Level 4: Accessible Playgrounds with Transfer Platforms and Ground Level Play Features"
"Queens","Completely Locked","06/21/2020 03:11:39 PM","Q301","Q301","","Reopened","true","Level 4: Accessible Playgrounds with Transfer Platforms and Ground Level Play Features","Union Hall St., 160 St. bet. 110 Ave. and 109 Ave.","Jamaica Playground",-73.7902805189443,40.6931996491865,"Adults Allowed","Q301-CPA-0001","03/31/2020 07:11:11 PM","06/21/2020 03:00:00 PM",412,"Q-12","Playgrounds","Union Hall St., 160 St. bet. 110 Ave. and 109 Ave., Queens, NY<br/><b>Status: </b>Reopened<br/><b>Accessibility: </b>Level 4: Accessible Playgrounds with Transfer Platforms and Ground Level Play Features"
"Queens","Completely Locked","06/22/2020 06:30:59 PM","Q395","Q395","","Reopened","","","37 St., 38 St., bet. 20 Rd. and 20 Ave.","Steinway Playground",-73.9034653821071,40.7764296787372,"","","03/31/2020 07:11:11 PM","06/22/2020 12:00:00 AM",401,"Q-01","Playgrounds","37 St., 38 St., bet. 20 Rd. and 20 Ave., Queens, NY<br/><b>Status: </b>Reopened<br/><b>Accessibility: </b>"
"Bronx","Partially Locked","06/22/2020 09:35:38 AM","X045","X045-01","","Reopened","true","Level 4: Accessible Playgrounds with Transfer Platforms and Ground Level Play Features","Jackson Ave & 144 St","St Mary's Playground East",-73.9104904502209,40.8103644495424,"Adults Allowed","X045-CPA-0001","03/31/2020 07:11:11 PM","06/21/2020 12:00:00 AM",201,"X-01","Playgrounds","Jackson Ave & 144 St, Bronx, NY<br/><b>Status: </b>Reopened<br/><b>Accessibility: </b>Level 4: Accessible Playgrounds with Transfer Platforms and Ground Level Play Features"
"Queens","Partially Locked","06/21/2020 12:55:58 PM","Q009","Q009-01","","Reopened","true","Level 4: Accessible Playgrounds with Transfer Platforms and Ground Level Play Features","Poppenhusen Ave, opp 119 St","MacNeil Playground",-73.8511309339273,40.793337138933,"Unknown","Q009-CPA-0001","03/31/2020 07:11:11 PM","06/21/2020 12:55:56 PM",407,"Q-07","Playgrounds","Poppenhusen Ave, opp 119 St, Queens, NY<br/><b>Status: </b>Reopened<br/><b>Accessibility: </b>Level 4: Accessible Playgrounds with Transfer Platforms and Ground Level Play Features"
"Manhattan","Completely Locked","06/22/2020 01:09:00 PM","M215","M215","","Reopened","true","Level 4: Accessible Playgrounds with Transfer Platforms and Ground Level Play Features","99 St. To 100 St., 3 Ave.","Cherry Tree Park",-73.947480264368,40.7872283708826,"Adults Allowed","M215-CPA-0001","03/31/2020 07:11:11 PM","06/21/2020 12:00:00 AM",111,"M-11","Playgrounds","99 St. To 100 St., 3 Ave., Manhattan, NY<br/><b>Status: </b>Reopened<br/><b>Accessibility: </b>Level 4: Accessible Playgrounds with Transfer Platforms and Ground Level Play Features"
"Brooklyn","Completely Locked","06/22/2020 12:32:10 PM","B345","B345","","Reopened","true","Level 4: Accessible Playgrounds with Transfer Platforms and Ground Level Play Features","Wortman Ave. between Vermont St. and New Jersey Ave.","Ethan Allen Playground",-73.8868237978681,40.655856296602,"Adults Allowed","B345-CPA-0001","03/31/2020 07:11:11 PM","06/20/2020 12:00:00 AM",305,"B-05","Playgrounds","Wortman Ave. between Vermont St. and New Jersey Ave., Brooklyn, NY<br/><b>Status: </b>Reopened<br/><b>Accessibility: </b>Level 4: Accessible Playgrounds with Transfer Platforms and Ground Level Play Features"
"Brooklyn","Completely Locked","06/22/2020 03:29:41 PM","B042","B042","","Reopened","true","Level 2: Accessible Playgrounds with Ramped Play Equipment and Universally Accessible Swings","18 Ave., 19 Ave., bet. 55 St. and 58 St.","Gravesend Park",-73.9850377967473,40.6235947730069,"Adults not allowed in some locations","B042-CPA-0001","03/31/2020 07:11:11 PM","06/22/2020 12:00:00 AM",312,"B-12","Playgrounds","18 Ave., 19 Ave., bet. 55 St. and 58 St., Brooklyn, NY<br/><b>Status: </b>Reopened<br/><b>Accessibility: </b>Level 2: Accessible Playgrounds with Ramped Play Equipment and Universally Accessible Swings"
"Brooklyn","Completely Locked","06/22/2020 01:46:50 PM","B057","B057-06","","Reopened","","","","Seba Playground",-73.9203001962731,40.5892311881613,"","","03/31/2020 07:11:11 PM","06/22/2020 12:00:00 AM",318,"B-18","Playgrounds",", Brooklyn, NY<br/><b>Status: </b>Reopened<br/><b>Accessibility: </b>"
"Manhattan","Completely Locked","06/22/2020 11:46:50 AM","M042","M042-03","","Reopened","true","Level 4: Accessible Playgrounds with Transfer Platforms and Ground Level Play Features","W 214 St & Seaman Ave","Indian Road Plgd",-73.9198975430368,40.8716782264556,"Adults not allowed in some locations","M042-CPA-0003","03/31/2020 07:11:11 PM","06/21/2020 12:00:00 AM",112,"M-12","Playgrounds","W 214 St & Seaman Ave, Manhattan, NY<br/><b>Status: </b>Reopened<br/><b>Accessibility: </b>Level 4: Accessible Playgrounds with Transfer Platforms and Ground Level Play Features"
"Brooklyn","Completely Locked","06/24/2020 10:46:06 AM","B404","B404","","Reopened","false","Not Applicable","E. 94 St. bet. Rutland Rd. and E. New York Ave.","East Flatbush Children's Playground",-73.9269938349353,40.6632449544989,"Adults not allowed in some locations","B404-CPA-0001","03/31/2020 07:11:11 PM","06/23/2020 12:00:00 AM",317,"B-17","Playgrounds","E. 94 St. bet. Rutland Rd. and E. New York Ave., Brooklyn, NY<br/><b>Status: </b>Reopened<br/><b>Accessibility: </b>Not Applicable"
"Bronx","Completely Locked","06/22/2020 10:49:43 AM","X002","X002-14","","Reopened","true","Level 4: Accessible Playgrounds with Transfer Platforms and Ground Level Play Features","Bronx River Pkwy & Rosewood St","Rosewood Playground",-73.8708889883748,40.8730689452171,"Adults Allowed","X002-CPA-0006","03/31/2020 07:11:11 PM","06/21/2020 12:00:00 AM",212,"X-14","Playgrounds","Bronx River Pkwy & Rosewood St, Bronx, NY<br/><b>Status: </b>Reopened<br/><b>Accessibility: </b>Level 4: Accessible Playgrounds with Transfer Platforms and Ground Level Play Features"
"Staten Island","Completely Locked","06/23/2020 10:15:20 AM","R016","R016-01","","Reopened","false","Not Applicable","Cedar Grove Ave, New Dorp Ln, Neptune St","Corporal Allan F. Kivlehan Park",-74.0977165741256,40.5638530248634,"Adults Allowed","R016-CPA-0001","03/31/2020 07:11:11 PM","06/22/2020 12:00:00 AM",595,"R-03","Playgrounds","Cedar Grove Ave, New Dorp Ln, Neptune St, Staten Island, NY<br/><b>Status: </b>Reopened<br/><b>Accessibility: </b>Not Applicable"
"Queens","Completely Locked","06/21/2020 06:55:59 PM","Q425","Q425","","Reopened","true","Level 4: Accessible Playgrounds with Transfer Platforms and Ground Level Play Features","Yellowstone Blvd. bet. 68 Ave. and 68 Rd.","Yellowstone Park",-73.8479286680021,40.7261695396805,"Adults Allowed","Q425-CPA-0001","03/31/2020 07:11:11 PM","06/21/2020 09:45:00 AM",406,"Q-06","Playgrounds","Yellowstone Blvd. bet. 68 Ave. and 68 Rd., Queens, NY<br/><b>Status: </b>Reopened<br/><b>Accessibility: </b>Level 4: Accessible Playgrounds with Transfer Platforms and Ground Level Play Features"
"Manhattan","Completely Locked","06/22/2020 11:58:32 AM","M010","M010-143","","Reopened","false","Not Applicable","79 St & 5 Av","Pat Hoffman Friedman Plgd",-73.9640332238573,40.7777122630061,"Unknown","M010-CPA-0007","03/31/2020 07:11:11 PM","06/23/2020 12:00:00 AM",164,"M-13","Playgrounds","79 St & 5 Av, Manhattan, NY<br/><b>Status: </b>Reopened<br/><b>Accessibility: </b>Not Applicable"
"Bronx","Completely Locked","06/22/2020 09:40:13 AM","X348","X348-01","","Reopened","true","Level 2: Accessible Playgrounds with Ramped Play Equipment and Universally Accessible Swings","North Side Of E 157th St & River Ave","River Avenue Parks",-73.9267594145622,40.8257909267636,"Adults not allowed in some locations","X348-CPA-0001","03/31/2020 07:11:11 PM","06/21/2020 12:00:00 AM",204,"X-04","Playgrounds","North Side Of E 157th St & River Ave, Bronx, NY<br/><b>Status: </b>Reopened<br/><b>Accessibility: </b>Level 2: Accessible Playgrounds with Ramped Play Equipment and Universally Accessible Swings"
"Brooklyn","Completely Locked","06/22/2020 04:33:21 PM","B223H","B223H","","Reopened","true","Level 4: Accessible Playgrounds with Transfer Platforms and Ground Level Play Features","Columbia Hts. at Middagh St.","Harry Chapin Playground",-73.9948995800861,40.70067368394,"Adults not allowed in some locations","B223H-CPA-0001","03/31/2020 07:11:11 PM","06/22/2020 12:00:00 AM",302,"B-02","Playgrounds","Columbia Hts. at Middagh St., Brooklyn, NY<br/><b>Status: </b>Reopened<br/><b>Accessibility: </b>Level 4: Accessible Playgrounds with Transfer Platforms and Ground Level Play Features"
"Queens","Not Lockable","06/21/2020 11:39:53 AM","Q134","Q134","","Reopened","true","Level 2: Accessible Playgrounds with Ramped Play Equipment and Universally Accessible Swings","240 St. bet. Braddock Ave. and Fairbury Ave.","Breininger Park",-73.7290120706323,40.7263427376951,"Unknown","Q134-CPA-0001","03/31/2020 07:11:11 PM","06/21/2020 11:39:50 AM",413,"Q-13","Playgrounds","240 St. bet. Braddock Ave. and Fairbury Ave., Queens, NY<br/><b>Status: </b>Reopened<br/><b>Accessibility: </b>Level 2: Accessible Playgrounds with Ramped Play Equipment and Universally Accessible Swings"
"Bronx","Completely Locked","06/22/2020 10:17:13 AM","X148E","X148E","","Reopened","true","Level 4: Accessible Playgrounds with Transfer Platforms and Ground Level Play Features","Cross Bronx Exwy Service Rd N bet. Topping Av and Clay Av","Peace Park",-73.9050033263655,40.8451929127981,"Adults Allowed","X148E-CPA-0001","03/31/2020 07:11:11 PM","06/21/2020 12:00:00 AM",205,"X-05","Playgrounds","Cross Bronx Exwy Service Rd N bet. Topping Av and Clay Av, Bronx, NY<br/><b>Status: </b>Reopened<br/><b>Accessibility: </b>Level 4: Accessible Playgrounds with Transfer Platforms and Ground Level Play Features"
"Staten Island","Completely Locked","06/22/2020 04:52:16 PM","R069","R069","","Reopened","true","Level 4: Accessible Playgrounds with Transfer Platforms and Ground Level Play Features","Foote Ave., Howard Ave., Martha St., Clove Rd.","Terrace Playground",-74.0982415068328,40.6138967102865,"Adults Allowed","R069-CPA-0001","03/31/2020 07:11:11 PM","06/22/2020 04:52:14 PM",501,"R-01","Playgrounds","Foote Ave., Howard Ave., Martha St., Clove Rd., Staten Island, NY<br/><b>Status: </b>Reopened<br/><b>Accessibility: </b>Level 4: Accessible Playgrounds with Transfer Platforms and Ground Level Play Features"
"Queens","Partially Locked","06/21/2020 10:11:32 AM","Q356","Q356","","Reopened","false","Not Applicable","67 Ave. bet. 230 St. and 233 St.","Alley Park",-73.7459754502999,40.746984865548,"Adults Allowed","Q356-CPA-0001","03/31/2020 07:11:11 PM","06/21/2020 10:11:29 AM",411,"Q-07A","Playgrounds","67 Ave. bet. 230 St. and 233 St., Queens, NY<br/><b>Status: </b>Reopened<br/><b>Accessibility: </b>Not Applicable"
"Brooklyn","Completely Locked","06/22/2020 04:33:34 PM","B222","B222","","Reopened","true","Level 4: Accessible Playgrounds with Transfer Platforms and Ground Level Play Features","bet. Pierrepont Pl., Pierrepont St. and the BQE","Pierrepont Playground",-73.9974632200204,40.6961722837671,"Adults Allowed","B222-CPA-0001","03/31/2020 07:11:11 PM","06/22/2020 12:00:00 AM",302,"B-02","Playgrounds","bet. Pierrepont Pl., Pierrepont St. and the BQE, Brooklyn, NY<br/><b>Status: </b>Reopened<br/><b>Accessibility: </b>Level 4: Accessible Playgrounds with Transfer Platforms and Ground Level Play Features"
"Queens","Completely Locked","06/21/2020 04:56:36 PM","Q163","Q163-21","","Reopened","true","Level 4: Accessible Playgrounds with Transfer Platforms and Ground Level Play Features","Shorefront Parkway And Beach 74 St","Rockaway Beach Playground",-73.8018421654895,40.5863855829457,"Unknown","Q163-CPA-0003","03/31/2020 07:11:11 PM","06/21/2020 04:56:33 PM",414,"Q-14","Playgrounds","Shorefront Parkway And Beach 74 St, Queens, NY<br/><b>Status: </b>Reopened<br/><b>Accessibility: </b>Level 4: Accessible Playgrounds with Transfer Platforms and Ground Level Play Features"
"Manhattan","Completely Locked","06/22/2020 03:29:27 PM","M072","M072-03","","Reopened","true","Level 4: Accessible Playgrounds with Transfer Platforms and Ground Level Play Features","W 148 St & Riverside Dr","Palisades Playground",-73.9506345474947,40.8290559656232,"Unknown","M072-CPA-0002","03/31/2020 07:11:11 PM","06/21/2020 12:00:00 AM",109,"M-14","Playgrounds","W 148 St & Riverside Dr, Manhattan, NY<br/><b>Status: </b>Reopened<br/><b>Accessibility: </b>Level 4: Accessible Playgrounds with Transfer Platforms and Ground Level Play Features"
"Queens","Completely Locked","06/22/2020 12:57:44 PM","Q021B","Q021B","","Reopened","true","Level 4: Accessible Playgrounds with Transfer Platforms and Ground Level Play Features","McLaughlin Ave. bet. Sutro St. and Francis Lewis Blvd.","McLaughlin Playground",-73.7663450594417,40.7255691409487,"Adults not allowed in some locations","Q021B-CPA-0001","03/31/2020 07:11:11 PM","06/21/2020 12:00:00 AM",408,"Q-08","Playgrounds","McLaughlin Ave. bet. Sutro St. and Francis Lewis Blvd., Queens, NY<br/><b>Status: </b>Reopened<br/><b>Accessibility: </b>Level 4: Accessible Playgrounds with Transfer Platforms and Ground Level Play Features"
"Manhattan","Completely Locked","06/22/2020 03:44:27 PM","M159","M159","","UnderConstruction","true","Level 4: Accessible Playgrounds with Transfer Platforms and Ground Level Play Features","7 Ave. bet. W. 150 St. and W. 151 St.","Frederick Johnson Playground",-73.9361677617855,40.8248822712661,"Adults Allowed","M159-CPA-0001","03/31/2020 07:11:11 PM","",110,"M-10","Playgrounds","7 Ave. bet. W. 150 St. and W. 151 St., Manhattan, NY<br/><b>Status: </b>UnderConstruction<br/><b>Accessibility: </b>Level 4: Accessible Playgrounds with Transfer Platforms and Ground Level Play Features"
"Staten Island","Not Lockable","06/22/2020 05:07:27 PM","R031","R031-08","","Reopened","true","Level 4: Accessible Playgrounds with Transfer Platforms and Ground Level Play Features","Between Park Building And Pond","Wolfe's Pond Park",-74.1909935252807,40.5160735180217,"Adults not allowed in some locations","R031-CPA-0001","03/31/2020 07:11:11 PM","06/22/2020 12:00:00 AM",503,"R-03","Playgrounds","Between Park Building And Pond, Staten Island, NY<br/><b>Status: </b>Reopened<br/><b>Accessibility: </b>Level 4: Accessible Playgrounds with Transfer Platforms and Ground Level Play Features"
"Manhattan","Partially Locked","06/22/2020 10:44:20 AM","M056","M056-03","","Reopened","true","Level 4: Accessible Playgrounds with Transfer Platforms and Ground Level Play Features","Morningside Ave & 113 St","Morningside Park",-73.9584433290165,40.8032835219566,"Adults not allowed in some locations","M056-CPA-0003","03/31/2020 07:11:11 PM","06/21/2020 12:00:00 AM",109,"M-09","Playgrounds","Morningside Ave & 113 St, Manhattan, NY<br/><b>Status: </b>Reopened<br/><b>Accessibility: </b>Level 4: Accessible Playgrounds with Transfer Platforms and Ground Level Play Features"
"Bronx","Completely Locked","06/22/2020 10:43:47 AM","X180","X180","","Reopened","","","Perry Ave. bet. E. 205 St. and E. 208 St","Whalen Playground",-73.877745461788,40.8743430977752,"","","03/31/2020 07:11:11 PM","06/21/2020 12:00:00 AM",207,"X-07","Playgrounds","Perry Ave. bet. E. 205 St. and E. 208 St, Bronx, NY<br/><b>Status: </b>Reopened<br/><b>Accessibility: </b>"
"Manhattan","Completely Locked","06/29/2020 12:01:29 PM","M200A","M200A","","Reopened","true","Level 4: Accessible Playgrounds with Transfer Platforms and Ground Level Play Features","W. 108 St. to W. 109 St., Columbus Ave. and Amsterdam Ave.","Anibal Aviles Playground",-73.962857172219,40.8011850939332,"Adults not allowed in some locations","M200A-CPA-0001","03/31/2020 07:11:11 PM","06/29/2020 12:00:00 AM",107,"M-07","Playgrounds","W. 108 St. to W. 109 St., Columbus Ave. and Amsterdam Ave., Manhattan, NY<br/><b>Status: </b>Reopened<br/><b>Accessibility: </b>Level 4: Accessible Playgrounds with Transfer Platforms and Ground Level Play Features"
"Bronx","Completely Locked","06/22/2020 10:06:59 AM","X299","X299","","Reopened","false","Not Applicable","Claremont Pkwy bet. Park Av and Washington Av","Little Claremont Playground",-73.9038043269421,40.8388889043715,"Adults Allowed","X299-CPA-0001","03/31/2020 07:11:11 PM","06/21/2020 12:00:00 AM",203,"X-03","Playgrounds","Claremont Pkwy bet. Park Av and Washington Av, Bronx, NY<br/><b>Status: </b>Reopened<br/><b>Accessibility: </b>Not Applicable"
"Queens","Completely Locked","06/21/2020 06:55:59 PM","Q335","Q335","","Reopened","true","Level 4: Accessible Playgrounds with Transfer Platforms and Ground Level Play Features","Booth St. bet. 68 Ave. and 68 Dr.","Russell Sage Playground",-73.8515666497605,40.7241388678401,"Adults Allowed","Q335-CPA-0001","03/31/2020 07:11:11 PM","06/21/2020 09:45:00 AM",406,"Q-06","Playgrounds","Booth St. bet. 68 Ave. and 68 Dr., Queens, NY<br/><b>Status: </b>Reopened<br/><b>Accessibility: </b>Level 4: Accessible Playgrounds with Transfer Platforms and Ground Level Play Features"
"Queens","Partially Locked","06/22/2020 01:07:06 PM","Q336","Q336","","Reopened","true","Level 3: Accessible Playgrounds with Universally Accessible Swings","Union Turnpike, Vleigh Pl., 141 St.","Judge Moses Weinstein Playground",-73.8206657866899,40.7186698438667,"Adults Allowed","Q336-CPA-0001","03/31/2020 07:11:11 PM","06/21/2020 12:00:00 AM",408,"Q-08","Playgrounds","Union Turnpike, Vleigh Pl., 141 St., Queens, NY<br/><b>Status: </b>Reopened<br/><b>Accessibility: </b>Level 3: Accessible Playgrounds with Universally Accessible Swings"
"Bronx","Completely Locked","06/22/2020 10:59:48 AM","X204","X204","","Reopened","true","Level 4: Accessible Playgrounds with Transfer Platforms and Ground Level Play Features","Story Ave. bet. Taylor Ave. and Thieriot Ave.","Story Playground",-73.8626816409817,40.8229972838745,"Adults Allowed","X204-CPA-0001","03/31/2020 07:11:11 PM","06/21/2020 12:00:00 AM",209,"X-09","Playgrounds","Story Ave. bet. Taylor Ave. and Thieriot Ave., Bronx, NY<br/><b>Status: </b>Reopened<br/><b>Accessibility: </b>Level 4: Accessible Playgrounds with Transfer Platforms and Ground Level Play Features"
"Queens","Partially Locked","06/21/2020 10:11:32 AM","Q001","Q001-04","","Reopened","true","Level 4: Accessible Playgrounds with Transfer Platforms and Ground Level Play Features","Horatio Pkwy & 50th Ave","Horatio Playground",-73.7535629537684,40.758672369878,"Unknown","Q001-CPA-0002","03/31/2020 07:11:11 PM","06/21/2020 10:11:29 AM",411,"Q-07A","Playgrounds","Horatio Pkwy & 50th Ave, Queens, NY<br/><b>Status: </b>Reopened<br/><b>Accessibility: </b>Level 4: Accessible Playgrounds with Transfer Platforms and Ground Level Play Features"
"Manhattan","Partially Locked","06/23/2020 09:14:34 AM","M283","M283-02","","Reopened","true","Level 3: Accessible Playgrounds with Universally Accessible Swings","River Terr, Warren St","Nelson Rockefeller Playground",-74.0166365190307,40.7168452791685,"Unknown","M283-CPA-0001","03/31/2020 07:11:11 PM","06/22/2020 12:00:00 AM",101,"M-01","Playgrounds","River Terr, Warren St, Manhattan, NY<br/><b>Status: </b>Reopened<br/><b>Accessibility: </b>Level 3: Accessible Playgrounds with Universally Accessible Swings"
"Bronx","Completely Locked","06/22/2020 09:58:19 AM","X113","X113","","Reopened","true","Level 4: Accessible Playgrounds with Transfer Platforms and Ground Level Play Features","Spofford Av bet. Faile St and Hunts Point Av","Hunts Point Playground",-73.8860460835159,40.8141781888423,"Adults Allowed","X113-CPA-0001","03/31/2020 07:11:11 PM","06/21/2020 12:00:00 AM",202,"X-02","Playgrounds","Spofford Av bet. Faile St and Hunts Point Av, Bronx, NY<br/><b>Status: </b>Reopened<br/><b>Accessibility: </b>Level 4: Accessible Playgrounds with Transfer Platforms and Ground Level Play Features"
"Queens","Completely Locked","06/21/2020 03:18:49 PM","Q027","Q027-02","","Reopened","true","Level 4: Accessible Playgrounds with Transfer Platforms and Ground Level Play Features","120th Ave & 238th Street","Laurelton Parkway West Playground",-73.7268129043973,40.6854380142955,"Unknown","Q027-CPA-0001","03/31/2020 07:11:11 PM","06/21/2020 03:18:46 PM",413,"Q-13","Playgrounds","120th Ave & 238th Street, Queens, NY<br/><b>Status: </b>Reopened<br/><b>Accessibility: </b>Level 4: Accessible Playgrounds with Transfer Platforms and Ground Level Play Features"
"Brooklyn","Completely Locked","06/23/2020 10:01:04 AM","B298","B298","","Reopened","true","Level 4: Accessible Playgrounds with Transfer Platforms and Ground Level Play Features","Park Ave., Martin Luther King Pl., Marcy Ave.","Stockton Playground",-73.9481936086525,40.6972020216824,"Unknown","B298-CPA-0001","03/31/2020 07:11:11 PM","06/22/2020 12:00:00 AM",303,"B-03","Playgrounds","Park Ave., Martin Luther King Pl., Marcy Ave., Brooklyn, NY<br/><b>Status: </b>Reopened<br/><b>Accessibility: </b>Level 4: Accessible Playgrounds with Transfer Platforms and Ground Level Play Features"
"Manhattan","Completely Locked","06/22/2020 11:19:07 AM","M010","M010-187","","Reopened","true","Level 4: Accessible Playgrounds with Transfer Platforms and Ground Level Play Features","91 St & Central Park West","Safari Plgd",-73.9664312942917,40.788480879479,"Unknown","M010-CPA-0013","03/31/2020 07:11:11 PM","06/21/2020 12:00:00 AM",164,"M-13","Playgrounds","91 St & Central Park West, Manhattan, NY<br/><b>Status: </b>Reopened<br/><b>Accessibility: </b>Level 4: Accessible Playgrounds with Transfer Platforms and Ground Level Play Features"
"Queens","Completely Locked","06/23/2020 10:55:47 AM","Q099","Q099-17","","Reopened","true","Level 4: Accessible Playgrounds with Transfer Platforms and Ground Level Play Features","College Pt Blvd, Van Wyck Expwy, At Booth Memorial Ave","Lawrence Playground",-73.8334548186251,40.7483758761606,"Unknown","Q099-CPA-0004","03/31/2020 07:11:11 PM","06/23/2020 10:55:44 AM",407,"Q-15","Playgrounds","College Pt Blvd, Van Wyck Expwy, At Booth Memorial Ave, Queens, NY<br/><b>Status: </b>Reopened<br/><b>Accessibility: </b>Level 4: Accessible Playgrounds with Transfer Platforms and Ground Level Play Features"
"Brooklyn","Completely Locked","06/22/2020 01:34:45 PM","B274","B274","","Reopened","true","Level 3: Accessible Playgrounds with Universally Accessible Swings","Seaview Ave. between E. 99 St. and E. 101 St.","Bayview Playground",-73.8874012124891,40.6348044229291,"Adults Allowed","B274-CPA-0001","03/31/2020 07:11:11 PM","06/22/2020 12:00:00 AM",318,"B-18","Playgrounds","Seaview Ave. between E. 99 St. and E. 101 St., Brooklyn, NY<br/><b>Status: </b>Reopened<br/><b>Accessibility: </b>Level 3: Accessible Playgrounds with Universally Accessible Swings"
"Manhattan","Completely Locked","06/22/2020 11:42:55 AM","M028","M028-02","","Reopened","true","Level 4: Accessible Playgrounds with Transfer Platforms and Ground Level Play Features","W 162 St, E/o Riverside Dr","Lily Brown Playground",-73.946138704026,40.8388614307684,"Adults Allowed","M028-CPA-0001","03/31/2020 07:11:11 PM","06/21/2020 12:00:00 AM",112,"M-12","Playgrounds","W 162 St, E/o Riverside Dr, Manhattan, NY<br/><b>Status: </b>Reopened<br/><b>Accessibility: </b>Level 4: Accessible Playgrounds with Transfer Platforms and Ground Level Play Features"
"Brooklyn","Not Lockable","06/22/2020 03:35:31 PM","B364","B364","","Reopened","false","Not Applicable","Bergen St., Utica Ave., Rochester Ave., St Mark's Ave.","Woods Playground",-73.9291435363239,40.6746660173686,"Adults Allowed","B364-CPA-0001","03/31/2020 07:11:11 PM","06/22/2020 12:00:00 AM",308,"B-08","Playgrounds","Bergen St., Utica Ave., Rochester Ave., St Mark's Ave., Brooklyn, NY<br/><b>Status: </b>Reopened<br/><b>Accessibility: </b>Not Applicable"
"Brooklyn","Completely Locked","06/22/2020 11:24:37 AM","B163","B163","","Reopened","false","Not Applicable","Atlantic Ave., Cleveland St. and Liberty Ave.","Sperandeo Brothers Playground",-73.8838530064016,40.6777603832396,"Adults Allowed","B163-CPA-0001","03/31/2020 07:11:11 PM","06/20/2020 12:00:00 AM",305,"B-05","Playgrounds","Atlantic Ave., Cleveland St. and Liberty Ave., Brooklyn, NY<br/><b>Status: </b>Reopened<br/><b>Accessibility: </b>Not Applicable"
"Staten Island","Completely Locked","07/06/2020 02:25:41 PM","R105","R105","","Reopened","","","Elizabet.h St., Forest Ave., Broadway, Clove Lake Pl.","Prall Playground",-74.1181371190357,40.6286028335566,"","","03/31/2020 07:11:11 PM","07/06/2020 12:00:00 AM",501,"R-01","Playgrounds","Elizabet.h St., Forest Ave., Broadway, Clove Lake Pl., Staten Island, NY<br/><b>Status: </b>Reopened<br/><b>Accessibility: </b>"
"Queens","Partially Locked","06/22/2020 01:03:22 PM","Q379","Q379","","Reopened","true","Level 4: Accessible Playgrounds with Transfer Platforms and Ground Level Play Features","148 St. bet. 85 Ave. and 85 Rd.","Briarwood Playground",-73.810805273743,40.7106526973488,"Adults not allowed in some locations","Q379-CPA-0001","03/31/2020 07:11:11 PM","06/21/2020 12:00:00 AM",408,"Q-08","Playgrounds","148 St. bet. 85 Ave. and 85 Rd., Queens, NY<br/><b>Status: </b>Reopened<br/><b>Accessibility: </b>Level 4: Accessible Playgrounds with Transfer Platforms and Ground Level Play Features"
"Manhattan","Completely Locked","06/22/2020 12:57:27 PM","M355","M355","","Reopened","false","Not Applicable","W. 146 St. bet. Fredrick Douglass Blvd. and Adam Clayton Powell Blvd.","Robert L. Clinkscales Playground and Community Garden",-73.9399028444458,40.8225488907935,"Adults Allowed","M355-CPA-0001","03/31/2020 07:11:11 PM","06/21/2020 12:00:00 AM",110,"M-10","Playgrounds","W. 146 St. bet. Fredrick Douglass Blvd. and Adam Clayton Powell Blvd., Manhattan, NY<br/><b>Status: </b>Reopened<br/><b>Accessibility: </b>Not Applicable"
"Bronx","Completely Locked","06/22/2020 10:43:01 AM","X092","X092-26","","Reopened","true","Level 3: Accessible Playgrounds with Universally Accessible Swings","Jerome Ave, East Gunhill Rd","Sachkerah Woods Playground",-73.8816019999483,40.8839384271495,"Unknown","X092-CPA-0004","03/31/2020 07:11:11 PM","06/21/2020 12:00:00 AM",226,"X-13","Playgrounds","Jerome Ave, East Gunhill Rd, Bronx, NY<br/><b>Status: </b>Reopened<br/><b>Accessibility: </b>Level 3: Accessible Playgrounds with Universally Accessible Swings"
"Brooklyn","Completely Locked","06/22/2020 03:35:50 PM","B148","B148","","Reopened","true","Level 2: Accessible Playgrounds with Ramped Play Equipment and Universally Accessible Swings","Clarkson Ave., New York Ave.","Rolph Henry Playground",-73.9475495334023,40.6558154201924,"Adults Allowed","B148-CPA-0001","03/31/2020 07:11:11 PM","06/22/2020 12:00:00 AM",309,"B-09","Playgrounds","Clarkson Ave., New York Ave., Brooklyn, NY<br/><b>Status: </b>Reopened<br/><b>Accessibility: </b>Level 2: Accessible Playgrounds with Ramped Play Equipment and Universally Accessible Swings"
"Manhattan","Completely Locked","06/19/2020 01:02:21 PM","M065","M065","","UnderConstruction","true","Level 2: Accessible Playgrounds with Ramped Play Equipment and Universally Accessible Swings","Columbia St, Delancey St and Bialystoker Pl","Luther Gulick Park",-73.9813969674556,40.7157308129646,"Adults not allowed in some locations","M065-CPA-0001","03/31/2020 07:11:11 PM","",103,"M-03","Playgrounds","Columbia St, Delancey St and Bialystoker Pl, Manhattan, NY<br/><b>Status: </b>UnderConstruction<br/><b>Accessibility: </b>Level 2: Accessible Playgrounds with Ramped Play Equipment and Universally Accessible Swings"
"Brooklyn","Partially Locked","06/23/2020 10:01:04 AM","B258","B258","","Reopened","true","Level 4: Accessible Playgrounds with Transfer Platforms and Ground Level Play Features","Ralph Ave. bet. Chauncey St. and Sumpter St.","Brevoort Playground",-73.9228086280091,40.6808470572661,"Adults Allowed","B258-CPA-0001","03/31/2020 07:11:11 PM","06/22/2020 12:00:00 AM",303,"B-03","Playgrounds","Ralph Ave. bet. Chauncey St. and Sumpter St., Brooklyn, NY<br/><b>Status: </b>Reopened<br/><b>Accessibility: </b>Level 4: Accessible Playgrounds with Transfer Platforms and Ground Level Play Features"
"Bronx","Not Lockable","06/22/2020 11:18:46 AM","X039","X039-99","","Reopened","true","Level 4: Accessible Playgrounds with Transfer Platforms and Ground Level Play Features","On Beachfront-Sand Area (MPPA Section 11-12)","Orchard Beach Plgd",-73.7942718415416,40.8630748635306,"Unknown","X039-CPA-0004","03/31/2020 07:11:11 PM","06/21/2020 12:00:00 AM",228,"X-15A","Playgrounds","On Beachfront-Sand Area (MPPA Section 11-12), Bronx, NY<br/><b>Status: </b>Reopened<br/><b>Accessibility: </b>Level 4: Accessible Playgrounds with Transfer Platforms and Ground Level Play Features"
"Manhattan","Completely Locked","06/19/2020 10:03:08 AM","M194","M194","","Reopened","false","Not Applicable","Catherine Slip, Madison St. and South St.","Alfred E. Smith Playground",-73.9971386903591,40.7111744707812,"Adults Allowed","M194-CPA-0001","03/31/2020 07:11:11 PM","06/19/2020 12:00:00 AM",103,"M-03","Playgrounds","Catherine Slip, Madison St. and South St., Manhattan, NY<br/><b>Status: </b>Reopened<br/><b>Accessibility: </b>Not Applicable"
"Queens","Completely Locked","06/21/2020 06:55:59 PM","Q306","Q306","","Reopened","true","Level 3: Accessible Playgrounds with Universally Accessible Swings","Alderton St. bet. Dieterle Cr. and Ellwell Cr.","The Painter's Playground",-73.8598001355211,40.7206000882424,"Adults Allowed","Q306-CPA-0001","03/31/2020 07:11:11 PM","06/21/2020 09:45:00 AM",406,"Q-06","Playgrounds","Alderton St. bet. Dieterle Cr. and Ellwell Cr., Queens, NY<br/><b>Status: </b>Reopened<br/><b>Accessibility: </b>Level 3: Accessible Playgrounds with Universally Accessible Swings"
"Brooklyn","Completely Locked","06/24/2020 10:45:14 AM","B207","B207","","Reopened","true","Level 4: Accessible Playgrounds with Transfer Platforms and Ground Level Play Features","E. 38 St., Ave. M, Flatlands Ave.","Sarsfield Playground",-73.9375589812503,40.620115087105,"Adults Allowed","B207-CPA-0001","03/31/2020 07:11:11 PM","06/23/2020 12:00:00 AM",318,"B-18","Playgrounds","E. 38 St., Ave. M, Flatlands Ave., Brooklyn, NY<br/><b>Status: </b>Reopened<br/><b>Accessibility: </b>Level 4: Accessible Playgrounds with Transfer Platforms and Ground Level Play Features"
"Manhattan","Completely Locked","06/22/2020 03:15:13 PM","M295","M295","","Reopened","","","Mercer St. bet. Houston St. and W. 4 St.","Mercer Playground",-73.9962383840384,40.7275866203796,"","","03/31/2020 07:11:11 PM","06/21/2020 12:00:00 AM",102,"M-02","Playgrounds","Mercer St. bet. Houston St. and W. 4 St., Manhattan, NY<br/><b>Status: </b>Reopened<br/><b>Accessibility: </b>"
"Brooklyn","Completely Locked","06/22/2020 03:45:07 PM","B051","B051","","Reopened","false","Not Applicable","Ave. S bet. E. 14 St. and E. 15 St.","Kelly Park Playground",-73.9579732768817,40.6036895176129,"Adults Allowed","B051-CPA-0001","03/31/2020 07:11:11 PM","06/22/2020 12:00:00 AM",315,"B-15","Playgrounds","Ave. S bet. E. 14 St. and E. 15 St., Brooklyn, NY<br/><b>Status: </b>Reopened<br/><b>Accessibility: </b>Not Applicable"
"Bronx","Completely Locked","06/22/2020 11:14:05 AM","X232","X232","","Reopened","true","Level 3: Accessible Playgrounds with Universally Accessible Swings","Mace Ave. bet. Lodovick Ave. and Gunther Ave.","Burns Playground",-73.8365551991354,40.8629254829879,"Adults Allowed","X232-CPA-0001","03/31/2020 07:11:11 PM","06/21/2020 12:00:00 AM",211,"X-11","Playgrounds","Mace Ave. bet. Lodovick Ave. and Gunther Ave., Bronx, NY<br/><b>Status: </b>Reopened<br/><b>Accessibility: </b>Level 3: Accessible Playgrounds with Universally Accessible Swings"
"Brooklyn","Completely Locked","06/23/2020 10:01:04 AM","B317","B317","","Reopened","true","Level 4: Accessible Playgrounds with Transfer Platforms and Ground Level Play Features","Lafayette Ave. and Franklin Ave.","Lafayette Gardens Playground",-73.9575656014562,40.6896710687971,"Adults Allowed","B317-CPA-0001","03/31/2020 07:11:11 PM","06/22/2020 12:00:00 AM",303,"B-03","Playgrounds","Lafayette Ave. and Franklin Ave., Brooklyn, NY<br/><b>Status: </b>Reopened<br/><b>Accessibility: </b>Level 4: Accessible Playgrounds with Transfer Platforms and Ground Level Play Features"
"Manhattan","Completely Locked","06/22/2020 11:09:18 AM","M010","M010-241","","Reopened","true","Level 3: Accessible Playgrounds with Universally Accessible Swings","110 St & Cathedral Pkwy","110th St Plgd",-73.957044230788,40.7997833546053,"Unknown","M010-CPA-0019","03/31/2020 07:11:11 PM","06/21/2020 12:00:00 AM",164,"M-13","Playgrounds","110 St & Cathedral Pkwy, Manhattan, NY<br/><b>Status: </b>Reopened<br/><b>Accessibility: </b>Level 3: Accessible Playgrounds with Universally Accessible Swings"
"Brooklyn","Completely Locked","06/22/2020 12:30:41 PM","B246","B246","","Reopened","true","Level 4: Accessible Playgrounds with Transfer Platforms and Ground Level Play Features","Wortman Ave. between Jerome St. and Warwick St.","Jerome Playground",-73.8793935769881,40.6590243740455,"Adults Allowed","B246-CPA-0001","03/31/2020 07:11:11 PM","06/20/2020 12:00:00 AM",305,"B-05","Playgrounds","Wortman Ave. between Jerome St. and Warwick St., Brooklyn, NY<br/><b>Status: </b>Reopened<br/><b>Accessibility: </b>Level 4: Accessible Playgrounds with Transfer Platforms and Ground Level Play Features"
"Queens","Partially Locked","06/21/2020 11:31:08 AM","Q293","Q293","","Reopened","true","Level 4: Accessible Playgrounds with Transfer Platforms and Ground Level Play Features","56 Ave. bet. 201 St. and 202 St.","Saul Weprin Playground",-73.7761341736701,40.7477513244498,"Adults Allowed","Q293-CPA-0002","03/31/2020 07:11:11 PM","06/21/2020 11:31:06 AM",411,"Q-11","Playgrounds","56 Ave. bet. 201 St. and 202 St., Queens, NY<br/><b>Status: </b>Reopened<br/><b>Accessibility: </b>Level 4: Accessible Playgrounds with Transfer Platforms and Ground Level Play Features"
"Bronx","Completely Locked","06/22/2020 09:30:14 AM","X272","X272","","Reopened","false","Not Applicable","E. 136 St. bet. Brown Pl. and Willis Ave.","Ranaqua Playground",-73.9220706589799,40.8068234645503,"Adults Allowed","X272-CPA-0001","03/31/2020 07:11:11 PM","06/21/2020 12:00:00 AM",201,"X-01","Playgrounds","E. 136 St. bet. Brown Pl. and Willis Ave., Bronx, NY<br/><b>Status: </b>Reopened<br/><b>Accessibility: </b>Not Applicable"
"Brooklyn","Completely Locked","06/22/2020 12:22:58 PM","B078","B078","","Reopened","true","Level 4: Accessible Playgrounds with Transfer Platforms and Ground Level Play Features","Vermont St. bet. Pitkin Ave. and Belmont Ave.","Grace Playground",-73.8945001718271,40.6718824256993,"Adults Allowed","B078-CPA-0001","03/31/2020 07:11:11 PM","06/20/2020 12:00:00 AM",305,"B-05","Playgrounds","Vermont St. bet. Pitkin Ave. and Belmont Ave., Brooklyn, NY<br/><b>Status: </b>Reopened<br/><b>Accessibility: </b>Level 4: Accessible Playgrounds with Transfer Platforms and Ground Level Play Features"
"Brooklyn","Partially Locked","06/22/2020 12:32:23 PM","B214","B214-01","","Reopened","false","Not Applicable","Vermont St, Stanley Ave, Gershwin JHS, Fence Betw Courts & Football Field","Linden Park",-73.8878208941789,40.658162128216,"Adults Allowed","B214-CPA-0001","03/31/2020 07:11:11 PM","06/20/2020 12:00:00 AM",305,"B-05","Playgrounds","Vermont St, Stanley Ave, Gershwin JHS, Fence Betw Courts & Football Field, Brooklyn, NY<br/><b>Status: </b>Reopened<br/><b>Accessibility: </b>Not Applicable"
"Queens","Partially Locked","06/21/2020 04:56:36 PM","Q460","Q460","","Reopened","true","Level 4: Accessible Playgrounds with Transfer Platforms and Ground Level Play Features","Cross Bay Blvd., Channel Rd. bet. E. 16 Rd. and E. 18 Rd.","Broad Channel Park",-73.8200066158419,40.6005536212454,"Unknown","Q460-CPA-0001","03/31/2020 07:11:11 PM","06/21/2020 04:56:33 PM",414,"Q-14","Playgrounds","Cross Bay Blvd., Channel Rd. bet. E. 16 Rd. and E. 18 Rd., Queens, NY<br/><b>Status: </b>Reopened<br/><b>Accessibility: </b>Level 4: Accessible Playgrounds with Transfer Platforms and Ground Level Play Features"
"Queens","Completely Locked","06/22/2020 04:28:49 PM","Q436","Q436","","Reopened","true","Level 4: Accessible Playgrounds with Transfer Platforms and Ground Level Play Features","30 Ave. bet. 29 St. and 30 St.","Athens Square",-73.92275860285,40.7677803104788,"Adults Allowed","Q436-CPA-0001","03/31/2020 07:11:11 PM","06/22/2020 12:00:00 AM",401,"Q-01","Playgrounds","30 Ave. bet. 29 St. and 30 St., Queens, NY<br/><b>Status: </b>Reopened<br/><b>Accessibility: </b>Level 4: Accessible Playgrounds with Transfer Platforms and Ground Level Play Features"
"Queens","Partially Locked","06/23/2020 11:11:01 AM","Q404","Q404","","Reopened","true","Level 4: Accessible Playgrounds with Transfer Platforms and Ground Level Play Features","115 Rd. bet. 218 St. and 2019 St.","East Springfield Playground",-73.7400493871442,40.6987360628359,"Adults Allowed","Q404-CPA-0001","03/31/2020 07:11:11 PM","06/23/2020 11:10:59 AM",413,"Q-13","Playgrounds","115 Rd. bet. 218 St. and 2019 St., Queens, NY<br/><b>Status: </b>Reopened<br/><b>Accessibility: </b>Level 4: Accessible Playgrounds with Transfer Platforms and Ground Level Play Features"
"Manhattan","Completely Locked","06/22/2020 03:50:05 PM","M240","M240","","UnderConstruction","true","Level 4: Accessible Playgrounds with Transfer Platforms and Ground Level Play Features","Audubon Ave., W. 169 St. and W. 170 St.","Audubon Playground",-73.9381359859511,40.8417330507914,"Adults Allowed","M240-CPA-0001","03/31/2020 07:11:11 PM","",112,"M-12A","Playgrounds","Audubon Ave., W. 169 St. and W. 170 St., Manhattan, NY<br/><b>Status: </b>UnderConstruction<br/><b>Accessibility: </b>Level 4: Accessible Playgrounds with Transfer Platforms and Ground Level Play Features"
"Bronx","Completely Locked","06/22/2020 10:29:17 AM","X244","X244","","Reopened","false","Not Applicable","W. 181 St. bet. Grand Ave. and Davidson","Grand Playground",-73.9072979420176,40.8558418795048,"Adults not allowed in some locations","X244-CPA-0001","03/31/2020 07:11:11 PM","06/21/2020 12:00:00 AM",205,"X-05","Playgrounds","W. 181 St. bet. Grand Ave. and Davidson, Bronx, NY<br/><b>Status: </b>Reopened<br/><b>Accessibility: </b>Not Applicable"
"Bronx","Completely Locked","06/22/2020 10:15:17 AM","X271","X271","","UnderConstruction","false","Not Applicable","E 170 St bet. Sheridan Av and Morris Av","Grant Park",-73.9138735935545,40.8360619391322,"Unknown","X271-CPA-0001","03/31/2020 07:11:11 PM","",204,"X-04","Playgrounds","E 170 St bet. Sheridan Av and Morris Av, Bronx, NY<br/><b>Status: </b>UnderConstruction<br/><b>Accessibility: </b>Not Applicable"
"Manhattan","Partially Locked","06/22/2020 10:49:20 AM","M077","M077-04","","Reopened","true","Level 4: Accessible Playgrounds with Transfer Platforms and Ground Level Play Features","W 129 St & St Nicholas Terr","St Nicholas",-73.9508824511669,40.813667511015,"Adults Allowed","M077-CPA-0003","03/31/2020 07:11:11 PM","06/21/2020 12:00:00 AM",109,"M-09","Playgrounds","W 129 St & St Nicholas Terr, Manhattan, NY<br/><b>Status: </b>Reopened<br/><b>Accessibility: </b>Level 4: Accessible Playgrounds with Transfer Platforms and Ground Level Play Features"
"Staten Island","Completely Locked","06/19/2020 01:54:41 PM","R046","R046-07","","Reopened","true","Level 4: Accessible Playgrounds with Transfer Platforms and Ground Level Play Features","Bet Graham Blvd, Jefferson Ave, Father Capodanno Blvd.","Midland Beach Playground",-74.0845108313857,40.5744361228032,"Adults Allowed","R046-CPA-0001","03/31/2020 07:11:11 PM","06/19/2020 12:00:00 AM",595,"R-02B","Playgrounds","Bet Graham Blvd, Jefferson Ave, Father Capodanno Blvd., Staten Island, NY<br/><b>Status: </b>Reopened<br/><b>Accessibility: </b>Level 4: Accessible Playgrounds with Transfer Platforms and Ground Level Play Features"
"Queens","Not Lockable","06/21/2020 03:03:32 PM","Q330","Q330","","Reopened","true","Level 2: Accessible Playgrounds with Ramped Play Equipment and Universally Accessible Swings","121 Ave. bet. Lucas St. and 192 St.","Locust Manor Playground",-73.7563660246621,40.6857448363151,"Adults Allowed","Q330-CPA-0001","03/31/2020 07:11:11 PM","06/21/2020 03:03:28 PM",412,"Q-12","Playgrounds","121 Ave. bet. Lucas St. and 192 St., Queens, NY<br/><b>Status: </b>Reopened<br/><b>Accessibility: </b>Level 2: Accessible Playgrounds with Ramped Play Equipment and Universally Accessible Swings"
"Bronx","Completely Locked","06/22/2020 11:14:47 AM","X214","X214","","Reopened","true","Level 2: Accessible Playgrounds with Ramped Play Equipment and Universally Accessible Swings","Olinville Ave. at Rosewood St.","Magenta Playground",-73.8678520207804,40.8734719665691,"Adults Allowed","X214-CPA-0001","03/31/2020 07:11:11 PM","06/21/2020 12:00:00 AM",212,"X-12","Playgrounds","Olinville Ave. at Rosewood St., Bronx, NY<br/><b>Status: </b>Reopened<br/><b>Accessibility: </b>Level 2: Accessible Playgrounds with Ramped Play Equipment and Universally Accessible Swings"
"Manhattan","Completely Locked","06/22/2020 11:14:47 AM","M010","M010-031","","Reopened","true","Level 2: Accessible Playgrounds with Ramped Play Equipment and Universally Accessible Swings","62 St, Bet West & Center Drs","Heckscher Plgd",-73.9772969678268,40.7686265537265,"Unknown","M010-CPA-0001","03/31/2020 07:11:11 PM","06/21/2020 12:00:00 AM",164,"M-13","Playgrounds","62 St, Bet West & Center Drs, Manhattan, NY<br/><b>Status: </b>Reopened<br/><b>Accessibility: </b>Level 2: Accessible Playgrounds with Ramped Play Equipment and Universally Accessible Swings"
"Staten Island","Completely Locked","06/22/2020 02:37:38 PM","R072","R072","","UnderConstruction","","","Adelaide Ave., Clawson St.","Clawson Playground",-74.1238365344422,40.5606072076371,"","","03/31/2020 07:11:11 PM","",503,"R-03","Playgrounds","Adelaide Ave., Clawson St., Staten Island, NY<br/><b>Status: </b>UnderConstruction<br/><b>Accessibility: </b>"
"Manhattan","Completely Locked","06/19/2020 10:12:12 AM","M235","M235","","Reopened","true","Level 2: Accessible Playgrounds with Ramped Play Equipment and Universally Accessible Swings","E. Broadway, Henry St., Gouverneur St.","Sol Lain Plgd",-73.9841384491156,40.7141270325785,"Adults not allowed in some locations","M235-CPA-0001","03/31/2020 07:11:11 PM","06/19/2020 12:00:00 AM",103,"M-03","Playgrounds","E. Broadway, Henry St., Gouverneur St., Manhattan, NY<br/><b>Status: </b>Reopened<br/><b>Accessibility: </b>Level 2: Accessible Playgrounds with Ramped Play Equipment and Universally Accessible Swings"
"Manhattan","Completely Locked","06/22/2020 05:39:13 PM","M208E","M208E","","Reopened","","","E. 127 St., 2 Ave., and Harlem River Drive","Crack Is Wack Playground",-73.9317732048977,40.8043586737293,"","","03/31/2020 07:11:11 PM","06/22/2020 12:00:00 AM",111,"M-11","Playgrounds","E. 127 St., 2 Ave., and Harlem River Drive, Manhattan, NY<br/><b>Status: </b>Reopened<br/><b>Accessibility: </b>"
"Manhattan","Completely Locked","06/22/2020 11:12:13 AM","M010","M010-164","","Reopened","true","Level 4: Accessible Playgrounds with Transfer Platforms and Ground Level Play Features","81 St & Central Pk West","Diana Ross Plgd",-73.9709871311635,40.7822609745131,"Unknown","M010-CPA-0009","03/31/2020 07:11:11 PM","06/21/2020 12:00:00 AM",164,"M-13","Playgrounds","81 St & Central Pk West, Manhattan, NY<br/><b>Status: </b>Reopened<br/><b>Accessibility: </b>Level 4: Accessible Playgrounds with Transfer Platforms and Ground Level Play Features"
"Brooklyn","Completely Locked","06/23/2020 10:01:04 AM","B313","B313","","Reopened","true","Level 4: Accessible Playgrounds with Transfer Platforms and Ground Level Play Features","Macdonough St. between Malcolm X Blvd. and Stuyvesant Ave.","El Shabazz Playground",-73.9308534899053,40.6828590107809,"Adults Allowed","B313-CPA-0001","03/31/2020 07:11:11 PM","06/22/2020 12:00:00 AM",303,"B-03","Playgrounds","Macdonough St. between Malcolm X Blvd. and Stuyvesant Ave., Brooklyn, NY<br/><b>Status: </b>Reopened<br/><b>Accessibility: </b>Level 4: Accessible Playgrounds with Transfer Platforms and Ground Level Play Features"
"Queens","Partially Locked","06/21/2020 11:27:34 AM","Q346","Q346","","Reopened","true","Level 2: Accessible Playgrounds with Ramped Play Equipment and Universally Accessible Swings","251 St. bet. 61 Ave. and 63 Ave.","Challenge Playground",-73.7280625427261,40.7570961262938,"Adults Allowed","Q346-CPA-0001","03/31/2020 07:11:11 PM","06/21/2020 11:27:31 AM",411,"Q-11","Playgrounds","251 St. bet. 61 Ave. and 63 Ave., Queens, NY<br/><b>Status: </b>Reopened<br/><b>Accessibility: </b>Level 2: Accessible Playgrounds with Ramped Play Equipment and Universally Accessible Swings"
"Queens","Completely Locked","06/21/2020 01:04:53 PM","Q024","Q024-02","","Reopened","true","Level 4: Accessible Playgrounds with Transfer Platforms and Ground Level Play Features","164 St & Lithonia","Playground",-73.8031396572034,40.7486743614552,"Unknown","Q024-CPA-0001","03/31/2020 07:11:11 PM","06/21/2020 01:04:51 PM",407,"Q-07","Playgrounds","164 St & Lithonia, Queens, NY<br/><b>Status: </b>Reopened<br/><b>Accessibility: </b>Level 4: Accessible Playgrounds with Transfer Platforms and Ground Level Play Features"
"Bronx","Completely Locked","06/22/2020 09:47:28 AM","X153","X153-02","","Reopened","true","Level 4: Accessible Playgrounds with Transfer Platforms and Ground Level Play Features","Merriam & Ogden Aves, W 168 St, University","Merriam Plgd (Lower)",-73.926198320847,40.8392115545549,"Adults not allowed in some locations","X153-CPA-0002","03/31/2020 07:11:11 PM","06/21/2020 12:00:00 AM",204,"X-04","Playgrounds","Merriam & Ogden Aves, W 168 St, University, Bronx, NY<br/><b>Status: </b>Reopened<br/><b>Accessibility: </b>Level 4: Accessible Playgrounds with Transfer Platforms and Ground Level Play Features"
"Manhattan","Completely Locked","06/22/2020 04:37:17 PM","M213","M213","","Reopened","true","Level 4: Accessible Playgrounds with Transfer Platforms and Ground Level Play Features","N/s E. 104 St., Madison Ave. and Park Ave.","Mae Grant Playground",-73.9496235590597,40.7924693082075,"Adults Allowed","M213-CPA-0001","03/31/2020 07:11:11 PM","06/22/2020 12:00:00 AM",111,"M-11","Playgrounds","N/s E. 104 St., Madison Ave. and Park Ave., Manhattan, NY<br/><b>Status: </b>Reopened<br/><b>Accessibility: </b>Level 4: Accessible Playgrounds with Transfer Platforms and Ground Level Play Features"
"Manhattan","Partially Locked","06/22/2020 12:58:48 PM","M141","M141","","Reopened","false","Not Applicable","Harlem River Dr., W. 151 St. To W. 154 St.","Harlem Lane Playground",-73.9347147647569,40.8250950301934,"Adults not allowed in some locations","M141-CPA-0001","03/31/2020 07:11:11 PM","06/21/2020 12:00:00 AM",110,"M-10","Playgrounds","Harlem River Dr., W. 151 St. To W. 154 St., Manhattan, NY<br/><b>Status: </b>Reopened<br/><b>Accessibility: </b>Not Applicable"
"Brooklyn","Completely Locked","06/24/2020 10:49:18 AM","B249","B249","","Reopened","true","Level 4: Accessible Playgrounds with Transfer Platforms and Ground Level Play Features","Dumont Ave. between Powell St. and Mother Gaston Blvd.","Van Dyke Playground",-73.9042682121939,40.6646251898098,"Adults not allowed in some locations","B249-CPA-0001","03/31/2020 07:11:11 PM","06/23/2020 12:00:00 AM",316,"B-16","Playgrounds","Dumont Ave. between Powell St. and Mother Gaston Blvd., Brooklyn, NY<br/><b>Status: </b>Reopened<br/><b>Accessibility: </b>Level 4: Accessible Playgrounds with Transfer Platforms and Ground Level Play Features"
"Brooklyn","Completely Locked","06/22/2020 04:15:01 PM","B158","B158","","Reopened","true","Level 4: Accessible Playgrounds with Transfer Platforms and Ground Level Play Features","18 Ave. bet. 83 St. and 82 St.","Garibaldi Playground",-74.0001184533611,40.6089357353523,"Adults Allowed","B158-CPA-0001","03/31/2020 07:11:11 PM","06/20/2020 12:00:00 AM",311,"B-11","Playgrounds","18 Ave. bet. 83 St. and 82 St., Brooklyn, NY<br/><b>Status: </b>Reopened<br/><b>Accessibility: </b>Level 4: Accessible Playgrounds with Transfer Platforms and Ground Level Play Features"
"Manhattan","Completely Locked","06/19/2020 10:04:49 AM","M019","M019","","Reopened","false","Not Applicable","Cherry St, Pike St, Monroe St","Coleman Playground",-73.9937732513848,40.7108614761713,"Adults Allowed","M019-CPA-0001","03/31/2020 07:11:11 PM","06/19/2020 12:00:00 AM",103,"M-03","Playgrounds","Cherry St, Pike St, Monroe St, Manhattan, NY<br/><b>Status: </b>Reopened<br/><b>Accessibility: </b>Not Applicable"
"Brooklyn","Completely Locked","06/22/2020 01:35:26 PM","B360","B360","","Reopened","false","Not Applicable","Remsen Ave. and Glenwood Rd.","Remsen Playground",-73.9075718203052,40.6420315068618,"Adults Allowed","B360-CPA-0001","03/31/2020 07:11:11 PM","06/22/2020 12:00:00 AM",318,"B-18","Playgrounds","Remsen Ave. and Glenwood Rd., Brooklyn, NY<br/><b>Status: </b>Reopened<br/><b>Accessibility: </b>Not Applicable"
"Brooklyn","Completely Locked","06/24/2020 11:34:44 AM","B293","B293","","Reopened","true","Level 4: Accessible Playgrounds with Transfer Platforms and Ground Level Play Features","Lafayette Ave. and Classon Ave.","Classon Playground",-73.9604643638219,40.6892782040205,"Adults Allowed","B293-CPA-0001","03/31/2020 07:11:11 PM","06/23/2020 12:00:00 AM",302,"B-02","Playgrounds","Lafayette Ave. and Classon Ave., Brooklyn, NY<br/><b>Status: </b>Reopened<br/><b>Accessibility: </b>Level 4: Accessible Playgrounds with Transfer Platforms and Ground Level Play Features"
"Bronx","Partially Locked","06/22/2020 10:07:22 AM","X147A","X147A-01","","Reopened","false","Not Applicable","Sheridan Exwy, Bronx River, S/o E 174 St Bridge","Starlight Park Playground",-73.8820320094127,40.8343739893475,"Adults not allowed in some locations","X147A-CPA-0001","03/31/2020 07:11:11 PM","06/21/2020 12:00:00 AM",209,"X-14","Playgrounds","Sheridan Exwy, Bronx River, S/o E 174 St Bridge, Bronx, NY<br/><b>Status: </b>Reopened<br/><b>Accessibility: </b>Not Applicable"
"Queens","Partially Locked","06/19/2020 01:40:13 PM","Q373","Q373","","Reopened","false","Not Applicable","100 St., 98 St. bet. 24 Ave. and 25 Ave.","East Elmhurst Playground",-73.871636492796,40.7657287245674,"Adults Allowed","Q373-CPA-0001","03/31/2020 07:11:11 PM","06/19/2020 01:40:11 PM",403,"Q-03","Playgrounds","100 St., 98 St. bet. 24 Ave. and 25 Ave., Queens, NY<br/><b>Status: </b>Reopened<br/><b>Accessibility: </b>Not Applicable"
"Brooklyn","Completely Locked","06/22/2020 11:24:26 AM","B141","B141","","Reopened","false","Not Applicable","Atlantic Ave. bet. Fountain Ave. and N. Conduit Ave.","City Line Park",-73.8740326179733,40.6788862699322,"Adults Allowed","B141-CPA-0001","03/31/2020 07:11:11 PM","06/20/2020 12:00:00 AM",305,"B-05","Playgrounds","Atlantic Ave. bet. Fountain Ave. and N. Conduit Ave., Brooklyn, NY<br/><b>Status: </b>Reopened<br/><b>Accessibility: </b>Not Applicable"
"Queens","Completely Locked","06/23/2020 09:27:35 AM","Q361","Q361","","UnderConstruction","false","Not Applicable","Broadway., 82 St., 45 Ave.","Moore Homestead Playground",-73.8827448114056,40.7421757008121,"Adults Allowed","Q361-CPA-0001","03/31/2020 07:11:11 PM","",404,"Q-04","Playgrounds","Broadway., 82 St., 45 Ave., Queens, NY<br/><b>Status: </b>UnderConstruction<br/><b>Accessibility: </b>Not Applicable"
"Bronx","Completely Locked","06/22/2020 10:03:12 AM","X014","X014","","Reopened","true","Level 4: Accessible Playgrounds with Transfer Platforms and Ground Level Play Features","E. 165 St. and Rogers Pl.","Horseshoe Playground",-73.8977070284057,40.8240679707461,"Adults Allowed","X014-CPA-0001","03/31/2020 07:11:11 PM","06/21/2020 12:00:00 AM",202,"X-02","Playgrounds","E. 165 St. and Rogers Pl., Bronx, NY<br/><b>Status: </b>Reopened<br/><b>Accessibility: </b>Level 4: Accessible Playgrounds with Transfer Platforms and Ground Level Play Features"
"Brooklyn","Completely Locked","06/22/2020 03:01:24 PM","B114","B114-01","","Reopened","true","Level 4: Accessible Playgrounds with Transfer Platforms and Ground Level Play Features","Nassau Ave Bet Monitor St & Russell St","Monsignor Mcgolrick Playground",-73.9435586598799,40.7252651347408,"Adults not allowed in some locations","B114-CPA-0001","03/31/2020 07:11:11 PM","06/21/2020 12:00:00 AM",301,"B-01","Playgrounds","Nassau Ave Bet Monitor St & Russell St, Brooklyn, NY<br/><b>Status: </b>Reopened<br/><b>Accessibility: </b>Level 4: Accessible Playgrounds with Transfer Platforms and Ground Level Play Features"
"Manhattan","Completely Locked","06/25/2020 02:00:34 PM","M303","M303","","Reopened","true","Level 4: Accessible Playgrounds with Transfer Platforms and Ground Level Play Features","W. 139 St. bet. Adam C Powell Blvd. and Lenox Ave.","Abyssinian Tot Lot",-73.9409349785114,40.8171385721753,"Adults Allowed","M303-CPA-0001","03/31/2020 07:11:11 PM","06/25/2020 12:00:00 AM",110,"M-10","Playgrounds","W. 139 St. bet. Adam C Powell Blvd. and Lenox Ave., Manhattan, NY<br/><b>Status: </b>Reopened<br/><b>Accessibility: </b>Level 4: Accessible Playgrounds with Transfer Platforms and Ground Level Play Features"
"Queens","Not Lockable","06/21/2020 02:55:40 PM","Q118","Q118","","Reopened","true","Level 4: Accessible Playgrounds with Transfer Platforms and Ground Level Play Features","Liberty Ave. bet. 101 St. and 102 St.","Police Officer Nicholas Demutiis Park",-73.8394556358225,40.6816237534203,"Adults Allowed","Q118-CPA-0001","03/31/2020 07:11:11 PM","06/21/2020 02:55:37 PM",410,"Q-10","Playgrounds","Liberty Ave. bet. 101 St. and 102 St., Queens, NY<br/><b>Status: </b>Reopened<br/><b>Accessibility: </b>Level 4: Accessible Playgrounds with Transfer Platforms and Ground Level Play Features"
"Bronx","Completely Locked","06/22/2020 11:11:33 AM","X087","X087","","Reopened","true","Level 4: Accessible Playgrounds with Transfer Platforms and Ground Level Play Features","Britton St. bet. Olinville Ave. and Barker Ave.","Zimmerman Playground",-73.8687394823477,40.8661555357401,"Adults Allowed","X087-CPA-0001","03/31/2020 07:11:11 PM","06/21/2020 12:00:00 AM",211,"X-11","Playgrounds","Britton St. bet. Olinville Ave. and Barker Ave., Bronx, NY<br/><b>Status: </b>Reopened<br/><b>Accessibility: </b>Level 4: Accessible Playgrounds with Transfer Platforms and Ground Level Play Features"
"Brooklyn","Completely Locked","06/22/2020 12:38:34 PM","B270","B270","","Reopened","true","Level 4: Accessible Playgrounds with Transfer Platforms and Ground Level Play Features","Hegeman Ave., Linden Blvd. bet. Powell St. and Mother Gaston Blvd.","Brownsville Playground",-73.9015443224569,40.6566600323653,"Adults Allowed","B270-CPA-0001","03/31/2020 07:11:11 PM","06/20/2020 12:00:00 AM",316,"B-16","Playgrounds","Hegeman Ave., Linden Blvd. bet. Powell St. and Mother Gaston Blvd., Brooklyn, NY<br/><b>Status: </b>Reopened<br/><b>Accessibility: </b>Level 4: Accessible Playgrounds with Transfer Platforms and Ground Level Play Features"
"Brooklyn","Completely Locked","06/22/2020 03:35:50 PM","B193","B193","","Reopened","true","Level 4: Accessible Playgrounds with Transfer Platforms and Ground Level Play Features","Albany Ave., E. New York Ave., Lefferts Ave.","Hamilton Metz Field",-73.9403487710369,40.6627444557932,"Adults Allowed","B193-CPA-0001","03/31/2020 07:11:11 PM","06/22/2020 12:00:00 AM",309,"B-09","Playgrounds","Albany Ave., E. New York Ave., Lefferts Ave., Brooklyn, NY<br/><b>Status: </b>Reopened<br/><b>Accessibility: </b>Level 4: Accessible Playgrounds with Transfer Platforms and Ground Level Play Features"
"Manhattan","Completely Locked","06/22/2020 05:19:55 PM","M256","M256","","Reopened","true","Level 4: Accessible Playgrounds with Transfer Platforms and Ground Level Play Features","E. 48 St. To E. 49 St., FDR","MacArthur Playground",-73.9651175392199,40.752179794004,"Adults Allowed","M256-CPA-0001","03/31/2020 07:11:11 PM","06/21/2020 12:00:00 AM",106,"M-06","Playgrounds","E. 48 St. To E. 49 St., FDR, Manhattan, NY<br/><b>Status: </b>Reopened<br/><b>Accessibility: </b>Level 4: Accessible Playgrounds with Transfer Platforms and Ground Level Play Features"
"Manhattan","Completely Locked","06/19/2020 10:11:14 AM","M105","M105-04","","Reopened","true","Level 2: Accessible Playgrounds with Ramped Play Equipment and Universally Accessible Swings","Rivington St","Rivington St Plgd",-73.9917662038347,40.7213347456204,"Adults Allowed","M105-CPA-0002","03/31/2020 07:11:11 PM","06/19/2020 12:00:00 AM",103,"M-03","Playgrounds","Rivington St, Manhattan, NY<br/><b>Status: </b>Reopened<br/><b>Accessibility: </b>Level 2: Accessible Playgrounds with Ramped Play Equipment and Universally Accessible Swings"
"Brooklyn","Completely Locked","06/24/2020 09:40:59 AM","B225","B225","","Reopened","true","Level 4: Accessible Playgrounds with Transfer Platforms and Ground Level Play Features","Atlantic Ave., Herkimer St., Kingston Ave., St Andrew's Pl.","St. Andrew's Playground",-73.9417046127034,40.6789895730772,"Adults Allowed","B225-CPA-0001","03/31/2020 07:11:11 PM","06/23/2020 12:00:00 AM",303,"B-03","Playgrounds","Atlantic Ave., Herkimer St., Kingston Ave., St Andrew's Pl., Brooklyn, NY<br/><b>Status: </b>Reopened<br/><b>Accessibility: </b>Level 4: Accessible Playgrounds with Transfer Platforms and Ground Level Play Features"
"Bronx","Completely Locked","06/22/2020 09:40:41 AM","X030","X030-02","","Reopened","false","Not Applicable","Northwest Corner Of Zone 2 Heritage Field","Heritage Field Playground",-73.9278377953924,40.8277437440982,"Adults not allowed in some locations","X030-CPA-0001","03/31/2020 07:11:11 PM","06/21/2020 12:00:00 AM",204,"X-04","Playgrounds","Northwest Corner Of Zone 2 Heritage Field, Bronx, NY<br/><b>Status: </b>Reopened<br/><b>Accessibility: </b>Not Applicable"
"Bronx","Completely Locked","06/22/2020 10:18:10 AM","X281","X281","","Reopened","true","Level 2: Accessible Playgrounds with Ramped Play Equipment and Universally Accessible Swings","W 175 St bet. Washington Av and Bathgate Av","Stop & Go Playground",-73.89894991164,40.8447746531064,"Adults not allowed in some locations","X281-CPA-0001","03/31/2020 07:11:11 PM","06/21/2020 12:00:00 AM",206,"X-06","Playgrounds","W 175 St bet. Washington Av and Bathgate Av, Bronx, NY<br/><b>Status: </b>Reopened<br/><b>Accessibility: </b>Level 2: Accessible Playgrounds with Ramped Play Equipment and Universally Accessible Swings"
"Queens","Completely Locked","06/21/2020 06:41:49 PM","Q289","Q289","","Reopened","true","Level 4: Accessible Playgrounds with Transfer Platforms and Ground Level Play Features","74 St., 75 St. bet. Cooper Ave. and 78 Ave.","Pinocchio Playground",-73.8753648194856,40.7057738004083,"Adults Allowed","Q289-CPA-0001","03/31/2020 07:11:11 PM","06/21/2020 09:00:00 AM",405,"Q-05","Playgrounds","74 St., 75 St. bet. Cooper Ave. and 78 Ave., Queens, NY<br/><b>Status: </b>Reopened<br/><b>Accessibility: </b>Level 4: Accessible Playgrounds with Transfer Platforms and Ground Level Play Features"
"Brooklyn","Completely Locked","06/22/2020 03:12:53 PM","B223PC","B223PC","","Reopened","false","Not Applicable","Rodney St., S. 3 St. and S. 4 St.","Rodney Playground South",-73.9559009222596,40.7098061844464,"Adults Allowed","B223PC-CPA-0001","03/31/2020 07:11:11 PM","06/21/2020 12:00:00 AM",301,"B-01","Playgrounds","Rodney St., S. 3 St. and S. 4 St., Brooklyn, NY<br/><b>Status: </b>Reopened<br/><b>Accessibility: </b>Not Applicable"
"Bronx","Completely Locked","06/22/2020 09:51:06 AM","X219","X219","","Reopened","true","Level 4: Accessible Playgrounds with Transfer Platforms and Ground Level Play Features","E 164 St bet. Teller Av and Clay Av at Park Ave","Arcilla Playground",-73.9145306945456,40.8272946122976,"Adults Allowed","X219-CPA-0001","03/31/2020 07:11:11 PM","06/21/2020 12:00:00 AM",204,"X-04","Playgrounds","E 164 St bet. Teller Av and Clay Av at Park Ave, Bronx, NY<br/><b>Status: </b>Reopened<br/><b>Accessibility: </b>Level 4: Accessible Playgrounds with Transfer Platforms and Ground Level Play Features"
"Brooklyn","Not Lockable","06/22/2020 03:28:45 PM","B082","B082-02","","Reopened","true","Level 4: Accessible Playgrounds with Transfer Platforms and Ground Level Play Features","79 St & Shore Rd","79 St Plgd",-74.0392085239642,40.6317695141101,"Unknown","B082-CPA-0002","03/31/2020 07:11:11 PM","06/22/2020 12:00:00 AM",310,"B-10","Playgrounds","79 St & Shore Rd, Brooklyn, NY<br/><b>Status: </b>Reopened<br/><b>Accessibility: </b>Level 4: Accessible Playgrounds with Transfer Platforms and Ground Level Play Features"
"Bronx","Partially Locked","06/22/2020 09:57:37 AM","X164","X164","","Reopened","true","Level 4: Accessible Playgrounds with Transfer Platforms and Ground Level Play Features","Rogers Pl. at Dawson St.","Dawson Playground",-73.8983360501005,40.8194488290983,"Adults Allowed","X164-CPA-0001","03/31/2020 07:11:11 PM","06/21/2020 12:00:00 AM",202,"X-02","Playgrounds","Rogers Pl. at Dawson St., Bronx, NY<br/><b>Status: </b>Reopened<br/><b>Accessibility: </b>Level 4: Accessible Playgrounds with Transfer Platforms and Ground Level Play Features"
"Manhattan","Completely Locked","06/22/2020 10:48:33 AM","M190","M190","","Reopened","true","Level 4: Accessible Playgrounds with Transfer Platforms and Ground Level Play Features","W. 126 St. to W. 129 St., Amsterdam Ave. to Old Broadway","Sheltering Arms Playground",-73.9558084992193,40.8145840079115,"Unknown","M190-CPA-0001","03/31/2020 07:11:11 PM","06/21/2020 12:00:00 AM",109,"M-09","Playgrounds","W. 126 St. to W. 129 St., Amsterdam Ave. to Old Broadway, Manhattan, NY<br/><b>Status: </b>Reopened<br/><b>Accessibility: </b>Level 4: Accessible Playgrounds with Transfer Platforms and Ground Level Play Features"
"Brooklyn","Completely Locked","06/22/2020 03:15:45 PM","B090","B090","","Reopened","false","Not Applicable","Lee Ave., Division Ave., Roebling St.","Sobel Playground",-73.9614525536838,40.7073957403439,"Adults Allowed","B090-CPA-0001","03/31/2020 07:11:11 PM","06/21/2020 12:00:00 AM",301,"B-01","Playgrounds","Lee Ave., Division Ave., Roebling St., Brooklyn, NY<br/><b>Status: </b>Reopened<br/><b>Accessibility: </b>Not Applicable"
"Queens","Completely Locked","06/22/2020 06:35:50 PM","QT06","QT06","","Reopened","false","Not Applicable","51 Ave. bet. Jackson Ave., Vernon Blvd. and 11 St.","Old Hickory Playground",-73.9535535198704,40.7417530964746,"Adults Allowed","QT06-CPA-0001","03/31/2020 07:11:11 PM","06/22/2020 12:00:00 AM",402,"Q-02","Playgrounds","51 Ave. bet. Jackson Ave., Vernon Blvd. and 11 St., Queens, NY<br/><b>Status: </b>Reopened<br/><b>Accessibility: </b>Not Applicable"
"Brooklyn","Completely Locked","06/22/2020 02:33:17 PM","B334","B334","","Reopened","true","Level 4: Accessible Playgrounds with Transfer Platforms and Ground Level Play Features","Central Ave., Troutman St. and Starr St.","Fermi Playground",-73.928477931289,40.7003584547103,"Adults Allowed","B334-CPA-0001","03/31/2020 07:11:11 PM","06/22/2020 12:00:00 AM",304,"B-04","Playgrounds","Central Ave., Troutman St. and Starr St., Brooklyn, NY<br/><b>Status: </b>Reopened<br/><b>Accessibility: </b>Level 4: Accessible Playgrounds with Transfer Platforms and Ground Level Play Features"
"Brooklyn","Completely Locked","06/22/2020 01:09:47 PM","B219","B219","","Reopened","false","Not Applicable","Fulton St., Truxton St., bet. Eastern Pkwy. and Van Sinderen Ave.","Callahan-Kelly Playground",-73.9065410261717,40.6783136181091,"Adults Allowed","B219-CPA-0001","03/31/2020 07:11:11 PM","06/21/2020 12:00:00 AM",316,"B-16","Playgrounds","Fulton St., Truxton St., bet. Eastern Pkwy. and Van Sinderen Ave., Brooklyn, NY<br/><b>Status: </b>Reopened<br/><b>Accessibility: </b>Not Applicable"
"Queens","Completely Locked","06/22/2020 01:09:47 PM","Q294","Q294","","Reopened","true","Level 2: Accessible Playgrounds with Ramped Play Equipment and Universally Accessible Swings","73 Ave., Jewel Ave. bet. Utopia Pkwy. and 179 St.","Utopia Playground",-73.7922005741275,40.7307650558856,"Adults Allowed","Q294-CPA-0001","03/31/2020 07:11:11 PM","06/21/2020 12:00:00 AM",408,"Q-08","Playgrounds","73 Ave., Jewel Ave. bet. Utopia Pkwy. and 179 St., Queens, NY<br/><b>Status: </b>Reopened<br/><b>Accessibility: </b>Level 2: Accessible Playgrounds with Ramped Play Equipment and Universally Accessible Swings"
"Queens","Partially Locked","06/23/2020 12:29:08 PM","Q399","Q399","","Reopened","true","Level 4: Accessible Playgrounds with Transfer Platforms and Ground Level Play Features","23 Ave. bet. 212 St. and Bell Blvd.","Bay Terrace Playground",-73.7773690627845,40.7825213897023,"Adults Allowed","Q399-CPA-0001","03/31/2020 07:11:11 PM","06/23/2020 12:29:06 PM",407,"Q-07","Playgrounds","23 Ave. bet. 212 St. and Bell Blvd., Queens, NY<br/><b>Status: </b>Reopened<br/><b>Accessibility: </b>Level 4: Accessible Playgrounds with Transfer Platforms and Ground Level Play Features"
"Bronx","Completely Locked","06/22/2020 10:23:17 AM","X102","X102","","Reopened","true","Level 3: Accessible Playgrounds with Universally Accessible Swings","E 188 St bet. Arthur Av and Hughes Av","Ciccarone Park",-73.8866270341326,40.8558201916988,"Adults Allowed","X102-CPA-0001","03/31/2020 07:11:11 PM","06/21/2020 12:00:00 AM",206,"X-06","Playgrounds","E 188 St bet. Arthur Av and Hughes Av, Bronx, NY<br/><b>Status: </b>Reopened<br/><b>Accessibility: </b>Level 3: Accessible Playgrounds with Universally Accessible Swings"
"Staten Island","Completely Locked","06/22/2020 04:49:43 PM","R123","R123","","Reopened","true","Level 4: Accessible Playgrounds with Transfer Platforms and Ground Level Play Features","Arnold St. to Prospect Ave. bet. Harvard Ave and Clyde Pl.","Skyline Playground",-74.089800161181,40.6391234099516,"Adults not allowed in some locations","R123-CPA-0001","03/31/2020 07:11:11 PM","06/22/2020 12:00:00 AM",501,"R-01","Playgrounds","Arnold St. to Prospect Ave. bet. Harvard Ave and Clyde Pl., Staten Island, NY<br/><b>Status: </b>Reopened<br/><b>Accessibility: </b>Level 4: Accessible Playgrounds with Transfer Platforms and Ground Level Play Features"
"Queens","Partially Locked","06/21/2020 10:11:32 AM","Q458","Q458-01","","Reopened","true","Not Applicable","Murray Ave, Jarman Rd, Sylvester Ln, Abbot Rd","Fort Totten Playground",-73.7780038632922,40.7940574166646,"Unknown","Q458-CPA-0001","03/31/2020 07:11:11 PM","06/21/2020 10:11:29 AM",407,"Q-07A","Playgrounds","Murray Ave, Jarman Rd, Sylvester Ln, Abbot Rd, Queens, NY<br/><b>Status: </b>Reopened<br/><b>Accessibility: </b>Not Applicable"
"Queens","Completely Locked","06/22/2020 10:11:32 AM","Q136","Q136","","Reopened","true","Level 4: Accessible Playgrounds with Transfer Platforms and Ground Level Play Features","115 St. bet. 14 Ave. and 14 Rd.","Playground 115",-73.8526465156158,40.7851963758886,"Adults not allowed in some locations","Q136-CPA-0001","03/31/2020 07:11:11 PM","06/22/2020 08:00:00 AM",407,"Q-07","Playgrounds","115 St. bet. 14 Ave. and 14 Rd., Queens, NY<br/><b>Status: </b>Reopened<br/><b>Accessibility: </b>Level 4: Accessible Playgrounds with Transfer Platforms and Ground Level Play Features"
"Bronx","Completely Locked","06/22/2020 11:01:41 AM","X203","X203","","Reopened","true","Level 4: Accessible Playgrounds with Transfer Platforms and Ground Level Play Features","Randall Ave. bet. Olmstead Ave. and Castle Hill Ave.","Randall Playground",-73.8494957236644,40.8191554758568,"Adults Allowed","X203-CPA-0001","03/31/2020 07:11:11 PM","06/21/2020 12:00:00 AM",209,"X-09","Playgrounds","Randall Ave. bet. Olmstead Ave. and Castle Hill Ave., Bronx, NY<br/><b>Status: </b>Reopened<br/><b>Accessibility: </b>Level 4: Accessible Playgrounds with Transfer Platforms and Ground Level Play Features"
"Queens","Partially Locked","06/21/2020 03:03:32 PM","Q413","Q413-02","","Reopened","true","Level 1: Playgrounds for All Children","Nr Guy Brewer Blvd & 134 Ave","Rochdale Park Playground",-73.7753193519953,40.6741779997591,"Adults not allowed in some locations","Q413-CPA-0001","03/31/2020 07:11:11 PM","06/21/2020 03:03:28 PM",412,"Q-12","Playgrounds","Nr Guy Brewer Blvd & 134 Ave, Queens, NY<br/><b>Status: </b>Reopened<br/><b>Accessibility: </b>Level 1: Playgrounds for All Children"
"Bronx","Completely Locked","06/22/2020 11:04:43 AM","X177","X177","","Reopened","true","Level 4: Accessible Playgrounds with Transfer Platforms and Ground Level Play Features","Castle Hill Av, Parker St","Castle Hill Playground",-73.8529871026999,40.8389096152325,"Adults Allowed","X177-CPA-0001","03/31/2020 07:11:11 PM","06/21/2020 12:00:00 AM",209,"X-09","Playgrounds","Castle Hill Av, Parker St, Bronx, NY<br/><b>Status: </b>Reopened<br/><b>Accessibility: </b>Level 4: Accessible Playgrounds with Transfer Platforms and Ground Level Play Features"
"Bronx","Completely Locked","06/22/2020 10:18:37 AM","X010A","X010A-02","","Reopened","false","Not Applicable","E 175 St & Arthur Ave","Tremont Plgd (2)",-73.8945681785893,40.8444358451545,"Adults Allowed","X010A-CPA-0002","03/31/2020 07:11:11 PM","06/21/2020 12:00:00 AM",206,"X-06","Playgrounds","E 175 St & Arthur Ave, Bronx, NY<br/><b>Status: </b>Reopened<br/><b>Accessibility: </b>Not Applicable"
"Bronx","Completely Locked","06/22/2020 10:17:24 AM","X258","X258","","Reopened","true","Level 2: Accessible Playgrounds with Ramped Play Equipment and Universally Accessible Swings","Anthony Av bet. Prospect Pl and Ittner Pl","Cleopatra Playground",-73.9042171996137,40.8455647588163,"Adults Allowed","X258-CPA-0001","03/31/2020 07:11:11 PM","06/21/2020 12:00:00 AM",205,"X-05","Playgrounds","Anthony Av bet. Prospect Pl and Ittner Pl, Bronx, NY<br/><b>Status: </b>Reopened<br/><b>Accessibility: </b>Level 2: Accessible Playgrounds with Ramped Play Equipment and Universally Accessible Swings"
"Bronx","Completely Locked","06/22/2020 10:48:07 AM","X004","X004-01","","Reopened","false","Not Applicable","E 227 St, Bronx River Parkway","227th Street Playground",-73.8642049573554,40.8907768266151,"Adults Allowed","X004-CPA-0001","03/31/2020 07:11:11 PM","06/21/2020 12:00:00 AM",212,"X-14","Playgrounds","E 227 St, Bronx River Parkway, Bronx, NY<br/><b>Status: </b>Reopened<br/><b>Accessibility: </b>Not Applicable"
"Queens","Completely Locked","06/22/2020 04:58:40 PM","Q099","Q099-01","","Reopened","false","Not Applicable","62nd Drive And Grand Central Pkwy Service Rd","World's Fair Playground",-73.8456877249287,40.7367412932987,"Unknown","Q099-CPA-0001","03/31/2020 07:11:11 PM","",406,"Q-06","Playgrounds","62nd Drive And Grand Central Pkwy Service Rd, Queens, NY<br/><b>Status: </b>Reopened<br/><b>Accessibility: </b>Not Applicable"
"Brooklyn","Completely Locked","06/23/2020 10:08:49 AM","B150","B150","","Reopened","true","Level 3: Accessible Playgrounds with Universally Accessible Swings","Ave. L bet. E. 17 St. and E. 18 St.","Kolbert Playground",-73.9582304849198,40.6202173632283,"Adults Allowed","B150-CPA-0001","03/31/2020 07:11:11 PM","06/22/2020 12:00:00 AM",314,"B-14","Playgrounds","Ave. L bet. E. 17 St. and E. 18 St., Brooklyn, NY<br/><b>Status: </b>Reopened<br/><b>Accessibility: </b>Level 3: Accessible Playgrounds with Universally Accessible Swings"
"Queens","Completely Locked","06/22/2020 06:34:41 PM","Q045","Q045","","Reopened","true","Level 2: Accessible Playgrounds with Ramped Play Equipment and Universally Accessible Swings","49 Ave. bet. 5 St. and Vernon Blvd.","Andrews Grove",-73.9546701126456,40.7433291540405,"Adults Allowed","Q045-CPA-0001","03/31/2020 07:11:11 PM","06/22/2020 12:00:00 AM",402,"Q-02","Playgrounds","49 Ave. bet. 5 St. and Vernon Blvd., Queens, NY<br/><b>Status: </b>Reopened<br/><b>Accessibility: </b>Level 2: Accessible Playgrounds with Ramped Play Equipment and Universally Accessible Swings"
"Bronx","Not Lockable","06/22/2020 11:17:10 AM","X046","X046-01","","Reopened","true","Level 4: Accessible Playgrounds with Transfer Platforms and Ground Level Play Features","233 St, Dereimer St & Baychester Ave","High Rock Plgd",-73.8408563095074,40.8883910728544,"Adults not allowed in some locations","X046-CPA-0001","03/31/2020 07:11:11 PM","06/21/2020 12:00:00 AM",212,"X-12","Playgrounds","233 St, Dereimer St & Baychester Ave, Bronx, NY<br/><b>Status: </b>Reopened<br/><b>Accessibility: </b>Level 4: Accessible Playgrounds with Transfer Platforms and Ground Level Play Features"
"Brooklyn","Completely Locked","06/22/2020 01:42:16 PM","B353","B353","","Reopened","true","Level 4: Accessible Playgrounds with Transfer Platforms and Ground Level Play Features","E. 71 St. between Ave. N and Ave. T","Bergen Beach Playground",-73.909682239046,40.6222456152713,"Adults Allowed","B353-CPA-0001","03/31/2020 07:11:11 PM","06/22/2020 12:00:00 AM",318,"B-18","Playgrounds","E. 71 St. between Ave. N and Ave. T, Brooklyn, NY<br/><b>Status: </b>Reopened<br/><b>Accessibility: </b>Level 4: Accessible Playgrounds with Transfer Platforms and Ground Level Play Features"
"Brooklyn","Completely Locked","06/22/2020 11:21:05 AM","B309","B309","","Reopened","true","Level 4: Accessible Playgrounds with Transfer Platforms and Ground Level Play Features","Stanley Ave. and Eldert La.","Pink Playground",-73.8623873859568,40.6666589766998,"Adults Allowed","B309-CPA-0001","03/31/2020 07:11:11 PM","06/20/2020 12:00:00 AM",305,"B-05","Playgrounds","Stanley Ave. and Eldert La., Brooklyn, NY<br/><b>Status: </b>Reopened<br/><b>Accessibility: </b>Level 4: Accessible Playgrounds with Transfer Platforms and Ground Level Play Features"
"Bronx","Completely Locked","06/22/2020 09:46:20 AM","X034","X034-06","","Reopened","true","Level 3: Accessible Playgrounds with Universally Accessible Swings","Cromwell Ave & McClellan St","Mullaly Plgd (2)",-73.9233552343089,40.8342762183861,"Adults not allowed in some locations","X034-CPA-0002","03/31/2020 07:11:11 PM","06/21/2020 12:00:00 AM",204,"X-04","Playgrounds","Cromwell Ave & McClellan St, Bronx, NY<br/><b>Status: </b>Reopened<br/><b>Accessibility: </b>Level 3: Accessible Playgrounds with Universally Accessible Swings"
"Manhattan","Completely Locked","06/19/2020 10:12:47 AM","M206","M206","","Reopened","true","Level 2: Accessible Playgrounds with Ramped Play Equipment and Universally Accessible Swings","Cherry St. To Water St., W. Catherine Slip To Market Slip","Tanahey Playground",-73.9958918991965,40.710108492953,"Adults not allowed in some locations","M206-CPA-0001","03/31/2020 07:11:11 PM","06/19/2020 12:00:00 AM",103,"M-03","Playgrounds","Cherry St. To Water St., W. Catherine Slip To Market Slip, Manhattan, NY<br/><b>Status: </b>Reopened<br/><b>Accessibility: </b>Level 2: Accessible Playgrounds with Ramped Play Equipment and Universally Accessible Swings"
"Queens","Completely Locked","06/21/2020 04:56:36 PM","Q162J","Q162J","","Reopened","false","Not Applicable","Seagirt Blvd bet. B. 17 St. and B. 12 St.","Beach 17 Playground",-73.7498072391703,40.5947157813927,"Adults not allowed in some locations","Q162J-CPA-0001","03/31/2020 07:11:11 PM","06/21/2020 04:56:33 PM",414,"Q-14","Playgrounds","Seagirt Blvd bet. B. 17 St. and B. 12 St., Queens, NY<br/><b>Status: </b>Reopened<br/><b>Accessibility: </b>Not Applicable"
"Queens","Completely Locked","06/21/2020 04:56:36 PM","Q403","Q403","","Reopened","true","Level 3: Accessible Playgrounds with Universally Accessible Swings","B 80 St., B 79 St., Rockaway Beach Blvd., Beach Channel Dr.","Beach Channel Playground",-73.805473331651,40.5889619932311,"Adults Allowed","Q403-CPA-0001","03/31/2020 07:11:11 PM","06/21/2020 04:56:33 PM",414,"Q-14","Playgrounds","B 80 St., B 79 St., Rockaway Beach Blvd., Beach Channel Dr., Queens, NY<br/><b>Status: </b>Reopened<br/><b>Accessibility: </b>Level 3: Accessible Playgrounds with Universally Accessible Swings"
"Queens","Completely Locked","06/19/2020 01:26:18 PM","Q015","Q015-10","","Reopened","false","Not Applicable","79 St & Park Lane South","Mary Whalen Playground",-73.8651209811654,40.695693579292,"Unknown","Q015-CPA-0007","03/31/2020 07:11:11 PM","06/19/2020 01:00:00 PM",482,"Q-16","Playgrounds","79 St & Park Lane South, Queens, NY<br/><b>Status: </b>Reopened<br/><b>Accessibility: </b>Not Applicable"
"Queens","Completely Locked","06/22/2020 01:04:37 PM","Q342","Q342","","Reopened","true","Level 4: Accessible Playgrounds with Transfer Platforms and Ground Level Play Features","164 St. bet. 65 Ave. and 67 Ave.","Electric Playground",-73.8054483779128,40.7356177788517,"Adults Allowed","Q342-CPA-0001","03/31/2020 07:11:11 PM","06/21/2020 12:00:00 AM",408,"Q-08","Playgrounds","164 St. bet. 65 Ave. and 67 Ave., Queens, NY<br/><b>Status: </b>Reopened<br/><b>Accessibility: </b>Level 4: Accessible Playgrounds with Transfer Platforms and Ground Level Play Features"
"Manhattan","Completely Locked","06/22/2020 03:15:31 PM","M125B","M125B","","Reopened","false","Not Applicable","Minetta Lane, W. 3 St. and Ave. of Americas","Minetta Playground",-74.001269553391,40.7307966565837,"Adults not allowed in some locations","M125B-CPA-0001","03/31/2020 07:11:11 PM","",102,"M-02","Playgrounds","Minetta Lane, W. 3 St. and Ave. of Americas, Manhattan, NY<br/><b>Status: </b>Reopened<br/><b>Accessibility: </b>Not Applicable"
"Bronx","Completely Locked","06/22/2020 10:19:06 AM","X010A","X010A-01","","Reopened","true","Level 2: Accessible Playgrounds with Ramped Play Equipment and Universally Accessible Swings","E Tremont & Arthur Aves","Tremont Plgd (1)",-73.8937323516478,40.8461232325351,"Adults Allowed","X010A-CPA-0001","03/31/2020 07:11:11 PM","06/21/2020 12:00:00 AM",206,"X-06","Playgrounds","E Tremont & Arthur Aves, Bronx, NY<br/><b>Status: </b>Reopened<br/><b>Accessibility: </b>Level 2: Accessible Playgrounds with Ramped Play Equipment and Universally Accessible Swings"
"Manhattan","Completely Locked","06/19/2020 10:13:18 AM","M088","M088-01","","Reopened","true","Level 3: Accessible Playgrounds with Universally Accessible Swings","East 9 St & Ave A","Tompkins Square Park",-73.9825482647356,40.7267890861473,"Adults not allowed in some locations","M088-CPA-0001","03/31/2020 07:11:11 PM","06/19/2020 12:00:00 AM",103,"M-03","Playgrounds","East 9 St & Ave A, Manhattan, NY<br/><b>Status: </b>Reopened<br/><b>Accessibility: </b>Level 3: Accessible Playgrounds with Universally Accessible Swings"
"Staten Island","Completely Locked","06/22/2020 02:03:55 PM","R063","R063","","Reopened","true","Level 2: Accessible Playgrounds with Ramped Play Equipment and Universally Accessible Swings","Parkinson Ave. at Kramer St.","Old Town Playground",-74.0816226584262,40.5956106719584,"Adults Allowed","R063-CPA-0001","03/31/2020 07:11:11 PM","06/22/2020 12:00:00 AM",502,"R-02","Playgrounds","Parkinson Ave. at Kramer St., Staten Island, NY<br/><b>Status: </b>Reopened<br/><b>Accessibility: </b>Level 2: Accessible Playgrounds with Ramped Play Equipment and Universally Accessible Swings"
"Queens","Completely Locked","06/22/2020 06:28:24 PM","Q066F","Q066F","","Reopened","true","Level 4: Accessible Playgrounds with Transfer Platforms and Ground Level Play Features","Hoyt Ave. North bet. 29 St. and 31 St.","Hoyt Playground",-73.9171429413383,40.7718192943034,"Adults Allowed","Q066F-CPA-0001","03/31/2020 07:11:11 PM","06/22/2020 12:00:00 AM",401,"Q-01","Playgrounds","Hoyt Ave. North bet. 29 St. and 31 St., Queens, NY<br/><b>Status: </b>Reopened<br/><b>Accessibility: </b>Level 4: Accessible Playgrounds with Transfer Platforms and Ground Level Play Features"
"Brooklyn","Completely Locked","06/22/2020 01:55:05 PM","B252","B252","","Reopened","true","Level 2: Accessible Playgrounds with Ramped Play Equipment and Universally Accessible Swings","Ave. Z between W. 1 St. and West St.","West Playground",-73.9701573712429,40.5867381616476,"Adults Allowed","B252-CPA-0001","03/31/2020 07:11:11 PM","06/22/2020 12:00:00 AM",313,"B-13","Playgrounds","Ave. Z between W. 1 St. and West St., Brooklyn, NY<br/><b>Status: </b>Reopened<br/><b>Accessibility: </b>Level 2: Accessible Playgrounds with Ramped Play Equipment and Universally Accessible Swings"
"Bronx","Completely Locked","06/22/2020 11:13:37 AM","X156","X156","","Reopened","true","Level 3: Accessible Playgrounds with Universally Accessible Swings","Adee Ave. at Tenboeck Ave.","Eastchester Playground",-73.8524539803417,40.8697948716894,"Adults Allowed","X156-CPA-0001","03/31/2020 07:11:11 PM","06/21/2020 12:00:00 AM",211,"X-11","Playgrounds","Adee Ave. at Tenboeck Ave., Bronx, NY<br/><b>Status: </b>Reopened<br/><b>Accessibility: </b>Level 3: Accessible Playgrounds with Universally Accessible Swings"
"Staten Island","Completely Locked","06/23/2020 09:55:14 AM","R090","R090","","Reopened","true","Level 2: Accessible Playgrounds with Ramped Play Equipment and Universally Accessible Swings","Preston Ave. bet. Koch Blvd. and Osborne St.","Lieutenant John H. Martinson Playground",-74.1626192242578,40.5369007884568,"Adults Allowed","R090-CPA-0001","03/31/2020 07:11:11 PM","06/22/2020 12:00:00 AM",503,"R-03","Playgrounds","Preston Ave. bet. Koch Blvd. and Osborne St., Staten Island, NY<br/><b>Status: </b>Reopened<br/><b>Accessibility: </b>Level 2: Accessible Playgrounds with Ramped Play Equipment and Universally Accessible Swings"
"Bronx","Completely Locked","06/22/2020 10:16:56 AM","X148D1","X148D1","","Reopened","false","Not Applicable","N/s Cross Bronx Exwy bet. Morris Av and Grand Concourse","Morris Mesa",-73.9095785810279,40.8453031678247,"Adults not allowed in some locations","X148D1-CPA-0001","03/31/2020 07:11:11 PM","06/21/2020 12:00:00 AM",205,"X-05","Playgrounds","N/s Cross Bronx Exwy bet. Morris Av and Grand Concourse, Bronx, NY<br/><b>Status: </b>Reopened<br/><b>Accessibility: </b>Not Applicable"
"Queens","Partially Locked","06/19/2020 12:50:42 PM","Q015","Q015-08","","Reopened","true","Level 3: Accessible Playgrounds with Universally Accessible Swings","80 St & Myrtle Ave","Dry Harbor Playground",-73.8676332136418,40.7024567992024,"Unknown","Q015-CPA-0005","03/31/2020 07:11:11 PM","06/19/2020 12:45:00 PM",405,"Q-16","Playgrounds","80 St & Myrtle Ave, Queens, NY<br/><b>Status: </b>Reopened<br/><b>Accessibility: </b>Level 3: Accessible Playgrounds with Universally Accessible Swings"
